-1,TimeUS,Roll,Pitch,Yaw,Alt,Lat,Lng,Roll,Pitch,Throttle,,,,,,Yaw
2022-10-29 17:17:34,179654476,45.08,-5.59,61.29,-12.06,22.5555982,88.3082726,1500,1500,987,,,,,,2011
2022-10-29 17:17:34,179697878,42.66,-4.62,60.23,-12.07,22.555598,88.3082745,1500,1500,987,,,,,,2011
2022-10-29 17:17:34,179733964,40.29,-3.7,59.38,-12.07,22.555598,88.3082745,1500,1500,987,,,,,,2011
2022-10-29 17:17:34,179774486,37.83,-2.72,58.68,-12.07,22.555598,88.3082745,1500,1500,987,,,,,,2011
2022-10-29 17:17:34,179841066,35.23,-1.15,58.16,-12.07,22.555598,88.3082745,1500,1500,987,,,,,,2011
2022-10-29 17:17:34,179912725,33.88,-1.25,57.6,-11.62,22.5555985,88.3082753,1500,1500,987,,,,,,2011
2022-10-29 17:17:35,179957813,33.02,-2.24,57.9,-11.62,22.5555985,88.3082753,1500,1500,987,,,,,,2011
2022-10-29 17:17:35,179996965,32.33,-4.04,58.42,-11.62,22.5555985,88.3082753,1500,1500,987,,,,,,2011
2022-10-29 17:17:35,180036896,32.13,-6.94,58.61,-11.62,22.5555985,88.3082753,1500,1500,987,,,,,,2011
2022-10-29 17:17:35,180078457,32.97,-9.91,58.09,-11.46,22.5555989,88.3082764,1500,1500,987,,,,,,2011
2022-10-29 17:17:35,180116701,34.14,-12.69,56.88,-11.46,22.5555989,88.3082764,1500,1500,987,,,,,,2011
2022-10-29 17:17:35,180158773,34.79,-14.84,55.53,-11.46,22.5555989,88.3082764,1500,1500,987,,,,,,2011
2022-10-29 17:17:35,180196471,35.72,-16.07,54.23,-11.46,22.5555989,88.3082764,1500,1500,987,,,,,,2011
2022-10-29 17:17:35,180236714,37.11,-16.45,52.84,-11.46,22.5555989,88.3082764,1500,1500,987,,,,,,2011
2022-10-29 17:17:35,180278430,38.63,-16.52,51.42,-11.68,22.5555992,88.3082772,1500,1500,987,,,,,,2011
2022-10-29 17:17:35,180317830,39.68,-16.28,50.31,-11.68,22.5555992,88.3082772,1500,1500,987,,,,,,2011
2022-10-29 17:17:35,180358893,40.64,-16,49.24,-11.68,22.5555992,88.3082772,1500,1500,987,,,,,,2011
2022-10-29 17:17:35,180396802,40.82,-15.75,48.13,-11.68,22.5555992,88.3082772,1500,1500,987,,,,,,2011
2022-10-29 17:17:35,180436687,40.91,-15.22,47.12,-11.68,22.5555992,88.3082772,1500,1500,987,,,,,,2011
2022-10-29 17:17:35,180477945,40.57,-14.34,46.33,-11.78,22.5555999,88.3082779,1500,1500,987,,,,,,2011
2022-10-29 17:17:35,180517410,39.73,-13.11,45.81,-11.78,22.5555999,88.3082779,1500,1500,987,,,,,,2011
2022-10-29 17:17:35,180559081,38.58,-11.56,45.48,-11.78,22.5555999,88.3082779,1500,1500,987,,,,,,2011
2022-10-29 17:17:35,180596718,37.02,-9.93,45.15,-11.78,22.5555999,88.3082779,1500,1500,987,,,,,,2011
2022-10-29 17:17:35,180636831,35.51,-8.24,44.75,-11.78,22.5555999,88.3082779,1500,1500,987,,,,,,2011
2022-10-29 17:17:35,180678767,34.08,-6.65,44.34,-11.59,22.5556006,88.3082775,1500,1500,987,,,,,,2011
2022-10-29 17:17:35,180717930,32.25,-5.28,44,-11.59,22.5556006,88.3082775,1500,1500,987,,,,,,2011
2022-10-29 17:17:35,180759267,30.44,-4.15,43.79,-11.59,22.5556006,88.3082775,1500,1500,987,,,,,,2011
2022-10-29 17:17:35,180796796,28.57,-3.33,43.67,-11.59,22.5556006,88.3082775,1500,1500,987,,,,,,2011
2022-10-29 17:17:35,180837043,26.75,-2.74,43.68,-11.59,22.5556006,88.3082775,1500,1500,987,,,,,,2011
2022-10-29 17:17:35,180878726,24.93,-2.37,43.9,-11.12,22.555601,88.308277,1500,1500,987,,,,,,2011
2022-10-29 17:17:35,180916986,23.05,-2.44,44.3,-11.12,22.555601,88.308277,1500,1500,987,,,,,,2011
2022-10-29 17:17:36,180958937,21.4,-2.73,44.92,-11.12,22.555601,88.308277,1500,1500,987,,,,,,2011
2022-10-29 17:17:36,180996698,19.77,-3.24,45.7,-11.12,22.555601,88.308277,1500,1500,987,,,,,,2011
2022-10-29 17:17:36,181036752,18.21,-3.96,46.69,-11.12,22.555601,88.308277,1500,1500,987,,,,,,2011
2022-10-29 17:17:36,181077924,16.85,-4.67,47.81,-11.05,22.5556009,88.3082772,1500,1500,987,,,,,,2011
2022-10-29 17:17:36,181116906,15.51,-5.4,49,-11.05,22.5556009,88.3082772,1500,1500,987,,,,,,2011
2022-10-29 17:17:36,181158871,14.14,-6.16,50.33,-11.05,22.5556009,88.3082772,1500,1500,987,,,,,,2011
2022-10-29 17:17:36,181196664,12.97,-6.74,51.77,-11.05,22.5556009,88.3082772,1500,1500,987,,,,,,2011
2022-10-29 17:17:36,181236728,11.65,-7.21,53.33,-11.05,22.5556009,88.3082772,1500,1500,987,,,,,,2011
2022-10-29 17:17:36,181278469,10.37,-7.52,54.99,-10.92,22.5556003,88.3082767,1500,1500,987,,,,,,2011
2022-10-29 17:17:36,181317063,9.14,-7.83,56.75,-10.92,22.5556003,88.3082767,1500,1500,987,,,,,,2011
2022-10-29 17:17:36,181358938,7.96,-8.21,58.57,-10.92,22.5556003,88.3082767,1500,1500,987,,,,,,2011
2022-10-29 17:17:36,181396462,6.97,-8.63,60.36,-10.92,22.5556003,88.3082767,1500,1500,987,,,,,,2011
2022-10-29 17:17:36,181436642,5.9,-8.98,62.06,-10.92,22.5556003,88.3082767,1500,1500,987,,,,,,2011
2022-10-29 17:17:36,181478066,4.96,-9.38,63.59,-10.77,22.5555993,88.3082759,1500,1500,987,,,,,,2011
2022-10-29 17:17:36,181517393,4.18,-9.69,64.81,-10.77,22.5555993,88.3082759,1500,1500,987,,,,,,2011
2022-10-29 17:17:36,181559031,3.66,-9.9,65.62,-10.77,22.5555993,88.3082759,1500,1500,987,,,,,,2011
2022-10-29 17:17:36,181596735,3.33,-10.04,66.11,-10.77,22.5555993,88.3082759,1500,1500,987,,,,,,2011
2022-10-29 17:17:36,181636659,3.05,-10.18,66.37,-10.77,22.5555993,88.3082759,1500,1500,987,,,,,,1987
2022-10-29 17:17:36,181678632,3.03,-10.27,66.49,-10.58,22.5555986,88.308275,1500,1500,1158,,,,,,1833
2022-10-29 17:17:36,181717394,3.11,-10.29,66.5,-10.58,22.5555986,88.308275,1500,1500,1310,,,,,,1655
2022-10-29 17:17:36,181758958,3.32,-10.21,66.34,-10.58,22.5555986,88.308275,1500,1500,1425,,,,,,1542
2022-10-29 17:17:36,181797053,3.58,-10.09,66.05,-10.58,22.5555986,88.308275,1500,1500,1511,,,,,,1500
2022-10-29 17:17:36,181837037,3.96,-9.77,65.65,-10.58,22.5555986,88.308275,1500,1500,1511,,,,,,1500
2022-10-29 17:17:36,181879006,4.42,-9.24,65.04,-10.79,22.5555982,88.3082746,1500,1500,1511,,,,,,1500
2022-10-29 17:17:36,181916646,4.41,-8.47,64.23,-10.79,22.5555982,88.3082746,1500,1500,1510,,,,,,1500
2022-10-29 17:17:37,181958889,4.69,-7.48,63.21,-10.79,22.5555982,88.3082746,1500,1500,1510,,,,,,1500
2022-10-29 17:17:37,181996297,4.42,-5.29,62.39,-10.79,22.5555982,88.3082746,1500,1500,1510,,,,,,1500
2022-10-29 17:17:37,182036734,4.12,-3.02,61.81,-10.79,22.5555982,88.3082746,1500,1500,1508,,,,,,1500
2022-10-29 17:17:37,182078476,4.13,-1.48,61.43,-11.56,22.555598,88.3082755,1500,1500,1507,,,,,,1500
2022-10-29 17:17:37,182117010,4.58,-1.62,61.39,-11.56,22.555598,88.3082755,1500,1500,1507,,,,,,1500
2022-10-29 17:17:37,182158926,4.85,-5.01,61.57,-11.56,22.555598,88.3082755,1500,1500,1505,,,,,,1500
2022-10-29 17:17:37,182196761,6.18,-9.91,61.81,-11.56,22.555598,88.3082755,1500,1500,1504,,,,,,1500
2022-10-29 17:17:37,182236732,8.98,-16.02,61.24,-11.56,22.555598,88.3082755,1500,1500,1502,,,,,,1500
2022-10-29 17:17:37,182277944,11.37,-20.83,60.93,-11.51,22.5555994,88.3082771,1500,1500,1470,,,,,,1540
2022-10-29 17:17:37,182317768,11.79,-20.81,62.11,-11.51,22.5555994,88.3082771,1500,1500,1429,,,,,,1642
2022-10-29 17:17:37,182358890,10.12,-19.65,64.25,-11.51,22.5555994,88.3082771,1500,1500,1266,,,,,,1760
2022-10-29 17:17:37,182396807,7.19,-19.92,66.89,-11.51,22.5555994,88.3082771,1500,1500,1144,,,,,,1801
2022-10-29 17:17:37,182436679,5.83,-18.93,69.97,-11.51,22.5555994,88.3082771,1500,1500,1009,,,,,,1841
2022-10-29 17:17:37,182478409,6.06,-17.54,71.64,-11.6,22.5556019,88.3082784,1500,1500,987,,,,,,1850
2022-10-29 17:17:37,182516649,5.94,-16.65,71.76,-11.6,22.5556019,88.3082784,1500,1500,987,,,,,,1757
2022-10-29 17:17:37,182558951,4.68,-15.3,71.87,-11.6,22.5556019,88.3082784,1500,1500,987,,,,,,1669
2022-10-29 17:17:37,182596469,4.13,-13.47,72.17,-11.6,22.5556019,88.3082784,1500,1500,987,,,,,,1587
2022-10-29 17:17:37,182636738,4.71,-12.08,72.09,-11.6,22.5556019,88.3082784,1500,1500,987,,,,,,1501
2022-10-29 17:17:37,182678818,5.32,-10.9,71.63,-11.58,22.5556027,88.3082781,1500,1500,987,,,,,,1500
2022-10-29 17:17:37,182717957,5.49,-9.33,71.32,-11.58,22.5556027,88.3082781,1500,1500,987,,,,,,1500
2022-10-29 17:17:37,182759410,5.7,-7.64,71.23,-11.58,22.5556027,88.3082781,1500,1500,987,,,,,,1500
2022-10-29 17:17:37,182797275,5.53,-6.56,71.19,-11.58,22.5556027,88.3082781,1500,1500,987,,,,,,1500
2022-10-29 17:17:37,182837077,5.11,-5.86,71.01,-11.58,22.5556027,88.3082781,1500,1500,987,,,,,,1500
2022-10-29 17:17:37,182878386,4.91,-5.18,70.79,-11.36,22.5556032,88.3082773,1500,1500,987,,,,,,1500
2022-10-29 17:17:37,182917068,4.86,-5.35,70.58,-11.36,22.5556032,88.3082773,1500,1500,987,,,,,,1500
2022-10-29 17:17:38,182958948,4.25,-6.74,70.38,-11.36,22.5556032,88.3082773,1500,1500,987,,,,,,1500
2022-10-29 17:17:38,182996664,3.72,-7.93,69.93,-11.36,22.5556032,88.3082773,1500,1500,987,,,,,,1500
2022-10-29 17:17:38,183036534,2.99,-9.1,69.28,-11.36,22.5556032,88.3082773,1500,1500,987,,,,,,1500
2022-10-29 17:17:38,183078475,2.66,-9.87,68.76,-11.16,22.5556032,88.308277,1500,1500,987,,,,,,1500
2022-10-29 17:17:38,183116748,2.74,-10.31,68.43,-11.16,22.5556032,88.308277,1500,1500,987,,,,,,1500
2022-10-29 17:17:38,183158943,2.62,-10.79,68.25,-11.16,22.5556032,88.308277,1500,1500,987,,,,,,1500
2022-10-29 17:17:38,183196711,2.36,-11.48,68.27,-11.16,22.5556032,88.308277,1500,1500,987,,,,,,1500
2022-10-29 17:17:38,183236706,2.03,-12.15,68.36,-11.16,22.5556032,88.308277,1500,1500,987,,,,,,1500
2022-10-29 17:17:38,183278298,1.97,-12.33,68.39,-11.24,22.5556034,88.3082772,1500,1500,987,,,,,,1500
2022-10-29 17:17:38,183317688,2.16,-12.1,68.3,-11.24,22.5556034,88.3082772,1500,1500,987,,,,,,1500
2022-10-29 17:17:38,183358903,2.08,-11.47,68.17,-11.24,22.5556034,88.3082772,1500,1500,987,,,,,,1500
2022-10-29 17:17:38,183396795,1.75,-10.62,68.01,-11.24,22.5556034,88.3082772,1500,1500,987,,,,,,1500
2022-10-29 17:17:38,183436768,1.57,-9.72,67.78,-11.24,22.5556034,88.3082772,1500,1500,987,,,,,,1500
2022-10-29 17:17:38,183478079,1.78,-9.4,67.35,-11.77,22.5556036,88.3082774,1500,1500,987,,,,,,1500
2022-10-29 17:17:38,183517261,2.25,-9.92,66.83,-11.77,22.5556036,88.3082774,1500,1500,987,,,,,,1500
2022-10-29 17:17:38,183559008,2.3,-11.22,66.38,-11.77,22.5556036,88.3082774,1500,1500,987,,,,,,1500
2022-10-29 17:17:38,183596824,2.78,-13.41,65.96,-11.77,22.5556036,88.3082774,1500,1500,987,,,,,,1500
2022-10-29 17:17:38,183636437,3.73,-16.33,65.46,-11.77,22.5556036,88.3082774,1500,1500,987,,,,,,1500
2022-10-29 17:17:38,183678460,4.31,-18.76,64.74,-11.62,22.5556037,88.3082761,1500,1500,987,,,,,,1500
2022-10-29 17:17:38,183718072,4.66,-19.82,63.94,-11.62,22.5556037,88.3082761,1500,1500,987,,,,,,1500
2022-10-29 17:17:38,183759035,4.83,-20.08,63.53,-11.62,22.5556037,88.3082761,1500,1500,987,,,,,,1500
2022-10-29 17:17:38,183797059,5.18,-20.02,63.41,-11.62,22.5556037,88.3082761,1500,1500,987,,,,,,1500
2022-10-29 17:17:38,183836977,5.71,-19.51,63.43,-11.62,22.5556037,88.3082761,1500,1500,987,,,,,,1500
2022-10-29 17:17:38,183878464,6.3,-18.46,63.73,-11.94,22.5556039,88.3082773,1500,1500,987,,,,,,1500
2022-10-29 17:17:38,183917529,6.76,-17.4,64.27,-11.94,22.5556039,88.3082773,1500,1500,987,,,,,,1500
2022-10-29 17:17:39,183959000,7.16,-16.25,64.9,-11.94,22.5556039,88.3082773,1500,1500,987,,,,,,1500
2022-10-29 17:17:39,183996501,7.63,-14.76,65.47,-11.94,22.5556039,88.3082773,1500,1500,987,,,,,,1500
2022-10-29 17:17:39,184036797,7.83,-13.3,65.95,-11.94,22.5556039,88.3082773,1500,1500,987,,,,,,1500
2022-10-29 17:17:39,184078061,7.75,-11.87,66.47,-11.99,22.5556034,88.3082783,1500,1500,987,,,,,,1500
2022-10-29 17:17:39,184117255,7.5,-10.34,67.06,-11.99,22.5556034,88.3082783,1500,1500,987,,,,,,1500
2022-10-29 17:17:39,184158941,7.3,-8.84,67.62,-11.99,22.5556034,88.3082783,1500,1500,987,,,,,,1500
2022-10-29 17:17:39,184196693,7.21,-7.82,68.04,-11.99,22.5556034,88.3082783,1500,1500,987,,,,,,1500
2022-10-29 17:17:39,184236418,6.83,-7,68.44,-11.99,22.5556034,88.3082783,1500,1500,987,,,,,,1500
2022-10-29 17:17:39,184278393,6.21,-6.42,68.87,-11.92,22.5556025,88.3082794,1500,1500,987,,,,,,1500
2022-10-29 17:17:39,184316741,5.81,-6.04,69.26,-11.92,22.5556025,88.3082794,1500,1500,987,,,,,,1500
2022-10-29 17:17:39,184358935,5.53,-5.6,69.57,-11.92,22.5556025,88.3082794,1500,1500,987,,,,,,1500
2022-10-29 17:17:39,184396635,5.13,-5.1,69.83,-11.92,22.5556025,88.3082794,1500,1500,987,,,,,,1500
2022-10-29 17:17:39,184436708,4.66,-4.67,70.06,-11.92,22.5556025,88.3082794,1500,1500,987,,,,,,1500
2022-10-29 17:17:39,184478460,4.32,-4.19,70.24,-12.22,22.5556019,88.3082819,1500,1500,1028,,,,,,1500
2022-10-29 17:17:39,184516877,4.09,-3.57,70.33,-12.22,22.5556019,88.3082819,1500,1500,1045,,,,,,1500
2022-10-29 17:17:39,184558999,3.85,-2.89,70.29,-12.22,22.5556019,88.3082819,1500,1500,1088,,,,,,1500
2022-10-29 17:17:39,184596496,3.6,-2.35,70.14,-12.22,22.5556019,88.3082819,1500,1500,1096,,,,,,1500
2022-10-29 17:17:39,184636660,3.28,-2.08,69.9,-12.22,22.5556019,88.3082819,1500,1500,1132,,,,,,1500
2022-10-29 17:17:39,184678027,3.06,-2.12,69.62,-12.22,22.5556019,88.3082819,1500,1500,1171,,,,,,1500
2022-10-29 17:17:39,184718035,2.79,-2.55,69.34,-12.4,22.555602,88.3082839,1500,1500,1189,,,,,,1500
2022-10-29 17:17:39,184758965,2.55,-3.06,69.13,-12.4,22.555602,88.3082839,1500,1500,1209,,,,,,1500
2022-10-29 17:17:39,184797419,2.43,-3.85,68.96,-12.4,22.555602,88.3082839,1500,1500,1231,,,,,,1500
2022-10-29 17:17:39,184836803,2.58,-5.16,68.7,-12.4,22.555602,88.3082839,1500,1500,1258,,,,,,1500
2022-10-29 17:17:39,184878791,2.94,-6.73,68.36,-12.27,22.5556013,88.3082858,1500,1500,1272,,,,,,1500
2022-10-29 17:17:39,184917615,3.81,-8.05,67.78,-12.27,22.5556013,88.3082858,1500,1500,1291,,,,,,1500
2022-10-29 17:17:40,184958877,4.67,-7.55,67.26,-12.27,22.5556013,88.3082858,1500,1500,1299,,,,,,1500
2022-10-29 17:17:40,184996724,3.91,-5.54,67,-12.27,22.5556013,88.3082858,1500,1500,1302,,,,,,1500
2022-10-29 17:17:40,185036758,2.6,-4.21,67.15,-12.27,22.5556013,88.3082858,1500,1500,1309,,,,,,1500
2022-10-29 17:17:40,185078404,2.21,-2.45,67.64,-12.21,22.5556009,88.3082876,1500,1500,1322,,,,,,1500
2022-10-29 17:17:40,185116906,1.97,-0.12,68.11,-12.21,22.5556009,88.3082876,1500,1500,1331,,,,,,1500
2022-10-29 17:17:40,185158888,1.55,1.26,68.08,-12.21,22.5556009,88.3082876,1500,1500,1331,,,,,,1500
2022-10-29 17:17:40,185196221,0.55,1.26,67.96,-12.21,22.5556009,88.3082876,1500,1500,1341,,,,,,1500
2022-10-29 17:17:40,185236791,0.75,1.26,67.5,-12.21,22.5556009,88.3082876,1500,1500,1343,,,,,,1500
2022-10-29 17:17:40,185278014,1.43,0.27,66.25,-12.51,22.5556009,88.3082896,1500,1500,1344,,,,,,1500
2022-10-29 17:17:40,185317784,1.77,-0.73,64.59,-12.51,22.5556009,88.3082896,1500,1500,1344,,,,,,1500
2022-10-29 17:17:40,185358942,2.27,0,62.74,-12.51,22.5556009,88.3082896,1500,1500,1341,,,,,,1500
2022-10-29 17:17:40,185396675,2.29,2.8,61.6,-12.51,22.5556009,88.3082896,1500,1500,1340,,,,,,1500
2022-10-29 17:17:40,185436371,1.72,4.11,61.08,-12.51,22.5556009,88.3082896,1500,1500,1341,,,,,,1500
2022-10-29 17:17:40,185478222,1.01,5.92,61.04,-12.51,22.5556009,88.3082896,1500,1500,1352,,,,,,1500
2022-10-29 17:17:40,185517510,0.17,7.87,61.41,-12.55,22.5556008,88.3082916,1500,1500,1360,,,,,,1500
2022-10-29 17:17:40,185559015,-0.33,7.54,61.67,-12.55,22.5556008,88.3082916,1500,1500,1372,,,,,,1500
2022-10-29 17:17:40,185596673,-1,5.9,61.57,-12.55,22.5556008,88.3082916,1500,1500,1381,,,,,,1500
2022-10-29 17:17:40,185636629,-0.96,4.56,60.9,-12.55,22.5556008,88.3082916,1500,1500,1391,,,,,,1500
2022-10-29 17:17:40,185678823,-0.83,2.15,59.67,-12.55,22.5556008,88.3082916,1500,1500,1408,,,,,,1500
2022-10-29 17:17:40,185717967,0.08,0.75,57.81,-13.01,22.5556013,88.3082942,1500,1500,1419,,,,,,1500
2022-10-29 17:17:40,185758964,0.85,2.44,56.03,-13.01,22.5556013,88.3082942,1500,1500,1428,,,,,,1500
2022-10-29 17:17:40,185796942,0.38,3.8,54.97,-13.01,22.5556013,88.3082942,1500,1500,1436,,,,,,1500
2022-10-29 17:17:40,185836924,-0.42,4.74,54.64,-13.01,22.5556013,88.3082942,1500,1500,1439,,,,,,1500
2022-10-29 17:17:40,185877954,-1.18,6.2,55.13,-13.01,22.5556013,88.3082942,1500,1500,1450,,,,,,1500
2022-10-29 17:17:40,185917677,-1.74,6.76,55.96,-13.53,22.555602,88.3082969,1500,1500,1482,,,,,,1500
2022-10-29 17:17:41,185958852,-1.5,6.17,56.52,-13.53,22.555602,88.3082969,1500,1500,1488,,,,,,1500
2022-10-29 17:17:41,185996634,-0.62,5.17,56.21,-13.53,22.555602,88.3082969,1500,1500,1467,,,,,,1500
2022-10-29 17:17:41,186036409,0.42,3.11,55.34,-13.53,22.555602,88.3082969,1500,1500,1466,,,,,,1500
2022-10-29 17:17:41,186078023,2.04,2.33,53.53,-13.53,22.555602,88.3082969,1500,1500,1466,,,,,,1500
2022-10-29 17:17:41,186117782,2.16,4.75,52.06,-13.08,22.5556027,88.3082981,1500,1500,1466,,,,,,1500
2022-10-29 17:17:41,186158885,1.74,6.38,51.2,-13.08,22.5556027,88.3082981,1500,1500,1467,,,,,,1500
2022-10-29 17:17:41,186196641,1.18,8.46,51.03,-13.08,22.5556027,88.3082981,1500,1500,1469,,,,,,1500
2022-10-29 17:17:41,186236782,0.64,10.67,51.16,-13.08,22.5556027,88.3082981,1500,1500,1469,,,,,,1500
2022-10-29 17:17:41,186277992,0.54,10.69,51.09,-13.08,22.5556027,88.3082981,1500,1500,1467,,,,,,1500
2022-10-29 17:17:41,186317745,0.35,9.11,50.51,-12.91,22.555603,88.3083004,1500,1500,1469,,,,,,1500
2022-10-29 17:17:41,186359028,0.94,7.36,49.36,-12.91,22.555603,88.3083004,1500,1500,1469,,,,,,1500
2022-10-29 17:17:41,186396308,2.79,5.75,47.11,-12.91,22.555603,88.3083004,1500,1500,1470,,,,,,1500
2022-10-29 17:17:41,186436675,3.79,6.82,44.82,-12.91,22.555603,88.3083004,1500,1500,1470,,,,,,1500
2022-10-29 17:17:41,186478492,1.28,7.33,42.97,-12.3,22.5556044,88.3083026,1500,1500,1469,,,,,,1500
2022-10-29 17:17:41,186517275,0.07,8.04,42.05,-12.3,22.5556044,88.3083026,1500,1500,1498,,,,,,1500
2022-10-29 17:17:41,186557793,-0.84,9.55,41.73,-12.3,22.5556044,88.3083026,1500,1500,1514,,,,,,1500
2022-10-29 17:17:41,186596589,-0.99,9.84,41.37,-12.3,22.5556044,88.3083026,1500,1500,1504,,,,,,1500
2022-10-29 17:17:41,186636480,-1.83,8.2,41.26,-12.3,22.5556044,88.3083026,1500,1500,1529,,,,,,1500
2022-10-29 17:17:41,186678871,-1.36,5.85,40.71,-11.02,22.5556083,88.3083055,1500,1500,1543,,,,,,1500
2022-10-29 17:17:41,186717833,0.8,3.95,39.64,-11.02,22.5556083,88.3083055,1500,1500,1543,,,,,,1500
2022-10-29 17:17:41,186757865,2.04,5.12,38.49,-11.02,22.5556083,88.3083055,1500,1500,1534,,,,,,1500
2022-10-29 17:17:41,186797322,0.4,5.68,37.61,-11.02,22.5556083,88.3083055,1500,1500,1533,,,,,,1496
2022-10-29 17:17:41,186836934,-1.48,4.6,37.29,-11.02,22.5556083,88.3083055,1500,1500,1540,,,,,,1496
2022-10-29 17:17:41,186878982,-2.3,5.43,37.47,-10.68,22.5556125,88.3083113,1500,1500,1564,,,,,,1500
2022-10-29 17:17:41,186916689,-2.87,6.16,37.63,-10.68,22.5556125,88.3083113,1500,1500,1574,,,,,,1498
2022-10-29 17:17:42,186957664,-3.46,5.02,38,-10.68,22.5556125,88.3083113,1500,1500,1573,,,,,,1498
2022-10-29 17:17:42,186996077,-2.66,2.78,38.03,-10.68,22.5556125,88.3083113,1500,1500,1571,,,,,,1496
2022-10-29 17:17:42,187036710,-0.2,1.17,37.36,-10.68,22.5556125,88.3083113,1500,1500,1571,,,,,,1496
2022-10-29 17:17:42,187078620,0.83,2.56,36.78,-10.7,22.5556175,88.3083177,1500,1500,1571,,,,,,1496
2022-10-29 17:17:42,187117265,-0.71,2.38,36.34,-10.7,22.5556175,88.3083177,1500,1500,1580,,,,,,1496
2022-10-29 17:17:42,187157467,-2.2,0.85,36.51,-10.7,22.5556175,88.3083177,1500,1500,1582,,,,,,1496
2022-10-29 17:17:42,187196665,-2.93,1.73,37.07,-10.7,22.5556175,88.3083177,1500,1500,1571,,,,,,1496
2022-10-29 17:17:42,187236748,-3.64,2.06,37.61,-10.7,22.5556175,88.3083177,1500,1500,1568,,,,,,1498
2022-10-29 17:17:42,187278510,-4.31,0.79,38.35,-10.97,22.5556225,88.3083248,1500,1500,1565,,,,,,1496
2022-10-29 17:17:42,187317673,-3.36,-1.17,38.71,-10.97,22.5556225,88.3083248,1500,1500,1565,,,,,,1498
2022-10-29 17:17:42,187357768,-0.73,-2.06,38.29,-10.97,22.5556225,88.3083248,1500,1500,1574,,,,,,1496
2022-10-29 17:17:42,187396531,0.47,-0.31,38.08,-10.97,22.5556225,88.3083248,1500,1500,1583,,,,,,1500
2022-10-29 17:17:42,187436865,-0.16,-1,37.84,-10.97,22.5556225,88.3083248,1500,1500,1592,,,,,,1500
2022-10-29 17:17:42,187478504,-1.16,-2.13,38.14,-10.76,22.5556282,88.3083306,1500,1500,1593,,,,,,1500
2022-10-29 17:17:42,187516582,-2.17,-0.87,38.7,-10.76,22.5556282,88.3083306,1500,1500,1602,,,,,,1500
2022-10-29 17:17:42,187557923,-3.01,-0.52,39.27,-10.76,22.5556282,88.3083306,1489,1500,1612,,,,,,1500
2022-10-29 17:17:42,187596155,-3.68,-1.82,39.93,-10.76,22.5556282,88.3083306,1492,1500,1621,,,,,,1500
2022-10-29 17:17:42,187636738,-2.65,-3.55,40.13,-10.76,22.5556282,88.3083306,1500,1500,1630,,,,,,1500
2022-10-29 17:17:42,187679185,-0.04,-3.54,39.54,-10.57,22.5556348,88.3083361,1447,1532,1638,,,,,,1500
2022-10-29 17:17:42,187717565,1.91,-1.61,39.17,-10.57,22.5556348,88.3083361,1445,1543,1652,,,,,,1500
2022-10-29 17:17:42,187757746,1.06,-2.64,38.87,-10.57,22.5556348,88.3083361,1436,1583,1678,,,,,,1500
2022-10-29 17:17:42,187797293,-0.5,-2.61,39.05,-10.57,22.5556348,88.3083361,1428,1598,1696,,,,,,1500
2022-10-29 17:17:42,187836919,-1.69,-0.93,39.42,-10.57,22.5556348,88.3083361,1426,1592,1699,,,,,,1500
2022-10-29 17:17:42,187878903,-2.75,-0.6,39.91,-10.68,22.5556414,88.3083426,1438,1584,1706,,,,,,1500
2022-10-29 17:17:42,187917055,-2.72,-1.74,40.16,-10.68,22.5556414,88.3083426,1410,1608,1706,,,,,,1500
2022-10-29 17:17:43,187957449,-0.26,-2.58,39.69,-10.68,22.5556414,88.3083426,1372,1638,1706,,,,,,1500
2022-10-29 17:17:43,187996668,2.14,-0.2,38.97,-10.68,22.5556414,88.3083426,1417,1631,1722,,,,,,1500
2022-10-29 17:17:43,188036744,1.64,0.69,38.41,-10.68,22.5556414,88.3083426,1436,1627,1731,,,,,,1500
2022-10-29 17:17:43,188078644,-0.48,-0.06,38.44,-11.13,22.5556464,88.3083492,1422,1637,1734,,,,,,1500
2022-10-29 17:17:43,188116681,-1.33,1.29,38.9,-11.13,22.5556464,88.3083492,1379,1660,1744,,,,,,1500
2022-10-29 17:17:43,188157673,-2.28,2.1,39.45,-11.13,22.5556464,88.3083492,1408,1653,1747,,,,,,1500
2022-10-29 17:17:43,188196003,-2.89,1.49,39.81,-11.13,22.5556464,88.3083492,1374,1652,1750,,,,,,1500
2022-10-29 17:17:43,188236631,-0.98,0.71,39.51,-11.13,22.5556464,88.3083492,1347,1652,1751,,,,,,1500
2022-10-29 17:17:43,188278662,1.63,3.07,38.92,-11.52,22.5556516,88.3083564,1344,1649,1753,,,,,,1500
2022-10-29 17:17:43,188317672,1.59,4.24,38.42,-11.52,22.5556516,88.3083564,1341,1646,1753,,,,,,1500
2022-10-29 17:17:43,188357513,-0.18,3.17,38.46,-11.52,22.5556516,88.3083564,1325,1624,1753,,,,,,1500
2022-10-29 17:17:43,188396719,-1.12,4.28,38.76,-11.52,22.5556516,88.3083564,1321,1624,1753,,,,,,1500
2022-10-29 17:17:43,188436803,-2.33,4.81,39.1,-11.52,22.5556516,88.3083564,1313,1638,1754,,,,,,1500
2022-10-29 17:17:43,188478397,-3.08,3.91,39.45,-10.93,22.5556586,88.3083608,1291,1640,1754,,,,,,1500
2022-10-29 17:17:43,188517246,-1.52,2.71,39.05,-10.93,22.5556586,88.3083608,1296,1642,1756,,,,,,1500
2022-10-29 17:17:43,188557773,0.71,4.44,38.08,-10.93,22.5556586,88.3083608,1309,1643,1757,,,,,,1500
2022-10-29 17:17:43,188596485,1.86,6.03,37.48,-10.93,22.5556586,88.3083608,1309,1650,1766,,,,,,1500
2022-10-29 17:17:43,188636797,0.15,4.94,37.37,-10.93,22.5556586,88.3083608,1312,1636,1769,,,,,,1500
2022-10-29 17:17:43,188678915,-0.95,5.69,37.53,-10.61,22.5556651,88.3083657,1312,1621,1766,,,,,,1500
2022-10-29 17:17:43,188717068,-2.12,6.23,37.69,-10.61,22.5556651,88.3083657,1304,1611,1760,,,,,,1500
2022-10-29 17:17:43,188758047,-3.06,5.19,37.94,-10.61,22.5556651,88.3083657,1302,1596,1751,,,,,,1500
2022-10-29 17:17:43,188796815,-1.91,3.46,37.56,-10.61,22.5556651,88.3083657,1302,1593,1742,,,,,,1500
2022-10-29 17:17:43,188836964,0.31,4,36.41,-10.61,22.5556651,88.3083657,1277,1593,1744,,,,,,1500
2022-10-29 17:17:43,188878962,1.95,5.75,35.71,-10.22,22.5556723,88.3083722,1272,1582,1753,,,,,,1500
2022-10-29 17:17:43,188917056,0.35,4.52,35.4,-10.22,22.5556723,88.3083722,1271,1574,1753,,,,,,1500
2022-10-29 17:17:44,188957471,-1.09,4.41,35.45,-10.22,22.5556723,88.3083722,1278,1561,1756,,,,,,1500
2022-10-29 17:17:44,188996849,-2.03,4.38,35.52,-10.22,22.5556723,88.3083722,1277,1561,1764,,,,,,1500
2022-10-29 17:17:44,189036651,-2.89,2.77,35.63,-10.22,22.5556723,88.3083722,1271,1560,1775,,,,,,1500
2022-10-29 17:17:44,189078396,-2.07,0.5,35.2,-10.63,22.5556789,88.3083806,1268,1560,1778,,,,,,1500
2022-10-29 17:17:44,189117348,0.33,0.05,33.83,-10.63,22.5556789,88.3083806,1242,1561,1781,,,,,,1500
2022-10-29 17:17:44,189157431,1.81,1.99,33.01,-10.63,22.5556789,88.3083806,1239,1558,1795,,,,,,1500
2022-10-29 17:17:44,189196683,0.38,1.26,32.51,-10.63,22.5556789,88.3083806,1233,1558,1804,,,,,,1500
2022-10-29 17:17:44,189236828,-1.07,1.04,32.44,-10.63,22.5556789,88.3083806,1231,1558,1807,,,,,,1500
2022-10-29 17:17:44,189278611,-1.96,1.47,32.35,-10.64,22.5556858,88.3083874,1231,1558,1808,,,,,,1500
2022-10-29 17:17:44,189317405,-2.79,0.19,32.36,-10.64,22.5556858,88.3083874,1231,1558,1808,,,,,,1500
2022-10-29 17:17:44,189357693,-2.22,-1.78,31.9,-10.64,22.5556858,88.3083874,1227,1560,1808,,,,,,1500
2022-10-29 17:17:44,189396060,0.2,-2.4,30.44,-10.64,22.5556858,88.3083874,1222,1561,1810,,,,,,1500
2022-10-29 17:17:44,189436837,1.15,-0.17,29.46,-10.64,22.5556858,88.3083874,1221,1562,1812,,,,,,1500
2022-10-29 17:17:44,189478522,-0.33,-0.54,28.94,-11,22.5556928,88.3083947,1193,1570,1812,,,,,,1500
2022-10-29 17:17:44,189516614,-1.78,-0.85,28.96,-11,22.5556928,88.3083947,1192,1571,1812,,,,,,1500
2022-10-29 17:17:44,189557818,-2.64,0.07,28.92,-11,22.5556928,88.3083947,1189,1574,1813,,,,,,1500
2022-10-29 17:17:44,189596676,-3.55,-0.67,29,-11,22.5556928,88.3083947,1190,1574,1812,,,,,,1500
2022-10-29 17:17:44,189636741,-2.97,-2.36,28.69,-11,22.5556928,88.3083947,1222,1565,1812,,,,,,1500
2022-10-29 17:17:44,189678723,-0.75,-3.08,27.51,-10.78,22.5557,88.3084009,1236,1560,1812,,,,,,1500
2022-10-29 17:17:44,189717757,-0.07,-0.74,26.54,-10.78,22.5557,88.3084009,1239,1565,1813,,,,,,1500
2022-10-29 17:17:44,189757883,-1.25,-0.76,26.13,-10.78,22.5557,88.3084009,1242,1568,1813,,,,,,1500
2022-10-29 17:17:44,189796937,-3.02,-1.39,26.31,-10.78,22.5557,88.3084009,1239,1576,1823,,,,,,1500
2022-10-29 17:17:44,189836745,-4.05,-0.3,26.53,-10.78,22.5557,88.3084009,1236,1583,1826,,,,,,1500
2022-10-29 17:17:44,189878474,-4.78,-0.43,26.81,-10.91,22.5557073,88.3084083,1231,1586,1833,,,,,,1500
2022-10-29 17:17:44,189916877,-4.5,-1.81,26.85,-10.91,22.5557073,88.3084083,1227,1587,1833,,,,,,1500
2022-10-29 17:17:45,189957513,-2.17,-2.75,26.08,-10.91,22.5557073,88.3084083,1211,1589,1835,,,,,,1500
2022-10-29 17:17:45,189996056,-0.97,-0.37,25.17,-10.91,22.5557073,88.3084083,1208,1592,1836,,,,,,1500
2022-10-29 17:17:45,190036655,-1.92,0.35,24.74,-10.91,22.5557073,88.3084083,1204,1592,1836,,,,,,1500
2022-10-29 17:17:45,190078643,-3.81,-0.18,24.93,-11.23,22.5557155,88.308415,1202,1593,1838,,,,,,1500
2022-10-29 17:17:45,190117078,-4.99,1.01,25.13,-11.23,22.5557155,88.308415,1198,1592,1839,,,,,,1500
2022-10-29 17:17:45,190157423,-5.81,1.32,25.39,-11.23,22.5557155,88.308415,1196,1589,1839,,,,,,1500
2022-10-29 17:17:45,190196748,-5.93,0.14,25.54,-11.23,22.5557155,88.308415,1193,1587,1839,,,,,,1500
2022-10-29 17:17:45,190236671,-3.99,-0.97,24.99,-11.23,22.5557155,88.308415,1190,1583,1839,,,,,,1500
2022-10-29 17:17:45,190278226,-1.92,1.21,23.97,-11.23,22.5557155,88.308415,1189,1578,1839,,,,,,1500
2022-10-29 17:17:45,190318042,-2.48,2.18,23.5,-11.73,22.5557235,88.3084208,1186,1578,1839,,,,,,1500
2022-10-29 17:17:45,190357523,-4.29,1.18,23.68,-11.73,22.5557235,88.3084208,1183,1578,1841,,,,,,1500
2022-10-29 17:17:45,190396456,-5.45,2.15,23.84,-11.73,22.5557235,88.3084208,1182,1576,1842,,,,,,1500
2022-10-29 17:17:45,190436509,-6.6,2.42,24.02,-11.73,22.5557235,88.3084208,1182,1574,1844,,,,,,1500
2022-10-29 17:17:45,190478031,-7.11,1.13,24.22,-11.73,22.5557235,88.3084208,1182,1571,1845,,,,,,1500
2022-10-29 17:17:45,190517081,-5.3,-0.37,23.66,-12.05,22.5557315,88.3084268,1178,1570,1846,,,,,,1500
2022-10-29 17:17:45,190557899,-3.22,1.25,22.4,-12.05,22.5557315,88.3084268,1176,1568,1846,,,,,,1500
2022-10-29 17:17:45,190595991,-2.57,2.66,21.54,-12.05,22.5557315,88.3084268,1170,1568,1846,,,,,,1500
2022-10-29 17:17:45,190636802,-4.33,1.75,21.39,-12.05,22.5557315,88.3084268,1164,1570,1846,,,,,,1500
2022-10-29 17:17:45,190678915,-5.44,2.49,21.28,-12.05,22.5557315,88.3084268,1161,1568,1846,,,,,,1500
2022-10-29 17:17:45,190718021,-6.7,2.82,21.16,-11.92,22.5557398,88.3084326,1158,1567,1846,,,,,,1500
2022-10-29 17:17:45,190757801,-7.54,1.61,21.1,-11.92,22.5557398,88.3084326,1155,1567,1846,,,,,,1500
2022-10-29 17:17:45,190797054,-6.28,-0.05,20.41,-11.92,22.5557398,88.3084326,1151,1567,1846,,,,,,1500
2022-10-29 17:17:45,190836930,-4.12,0.87,18.75,-11.92,22.5557398,88.3084326,1133,1565,1846,,,,,,1500
2022-10-29 17:17:45,190878750,-2.75,2.74,17.56,-11.89,22.5557481,88.3084384,1130,1564,1846,,,,,,1500
2022-10-29 17:17:45,190917385,-4.4,1.96,17.2,-11.89,22.5557481,88.3084384,1129,1556,1846,,,,,,1500
2022-10-29 17:17:46,190957507,-5.78,2.26,16.95,-11.89,22.5557481,88.3084384,1126,1556,1846,,,,,,1500
2022-10-29 17:17:46,190996478,-6.86,2.61,16.59,-11.89,22.5557481,88.3084384,1124,1556,1846,,,,,,1500
2022-10-29 17:17:46,191036495,-7.85,1.46,16.38,-11.89,22.5557481,88.3084384,1110,1558,1846,,,,,,1500
2022-10-29 17:17:46,191078036,-6.98,-0.5,15.68,-11.89,22.5557481,88.3084384,1108,1561,1846,,,,,,1500
2022-10-29 17:17:46,191117226,-4.98,-0.42,13.88,-12.14,22.5557564,88.3084432,1104,1564,1846,,,,,,1500
2022-10-29 17:17:46,191157610,-3.62,1.66,12.46,-12.14,22.5557564,88.3084432,1102,1565,1848,,,,,,1500
2022-10-29 17:17:46,191196065,-5.2,1.2,11.98,-12.14,22.5557564,88.3084432,1101,1568,1848,,,,,,1500
2022-10-29 17:17:46,191236698,-6.6,1.23,11.75,-12.14,22.5557564,88.3084432,1098,1568,1848,,,,,,1500
2022-10-29 17:17:46,191278351,-7.57,1.83,11.31,-12.14,22.5557564,88.3084432,1098,1565,1848,,,,,,1500
2022-10-29 17:17:46,191317803,-8.63,0.81,11.08,-12.49,22.5557653,88.3084481,1098,1565,1848,,,,,,1500
2022-10-29 17:17:46,191357593,-8.07,-1.21,10.51,-12.49,22.5557653,88.3084481,1098,1565,1848,,,,,,1500
2022-10-29 17:17:46,191396827,-6.09,-1.69,8.8,-12.49,22.5557653,88.3084481,1098,1565,1848,,,,,,1500
2022-10-29 17:17:46,191436668,-4.8,0.49,7.28,-12.49,22.5557653,88.3084481,1098,1565,1848,,,,,,1500
2022-10-29 17:17:46,191477784,-6.24,0.37,6.78,-11.63,22.5557741,88.3084524,1101,1564,1848,,,,,,1500
2022-10-29 17:17:46,191517524,-7.71,0.17,6.64,-11.63,22.5557741,88.3084524,1102,1562,1848,,,,,,1500
2022-10-29 17:17:46,191557775,-8.81,1,6.22,-11.63,22.5557741,88.3084524,1104,1560,1848,,,,,,1500
2022-10-29 17:17:46,191596444,-9.97,0.35,6.1,-11.63,22.5557741,88.3084524,1104,1558,1846,,,,,,1500
2022-10-29 17:17:46,191636561,-9.57,-1.48,5.7,-11.63,22.5557741,88.3084524,1104,1558,1846,,,,,,1500
2022-10-29 17:17:46,191678820,-7.4,-2.39,4.23,-11.63,22.5557741,88.3084524,1104,1565,1846,,,,,,1500
2022-10-29 17:17:46,191717756,-6.32,-0.13,2.54,-11.51,22.5557827,88.3084574,1101,1571,1846,,,,,,1500
2022-10-29 17:17:46,191757878,-7.05,0.2,1.87,-11.51,22.5557827,88.3084574,1098,1574,1846,,,,,,1500
2022-10-29 17:17:46,191796816,-8.69,-0.06,1.69,-11.51,22.5557827,88.3084574,1098,1574,1846,,,,,,1500
2022-10-29 17:17:46,191837039,-9.99,0.99,1.21,-11.51,22.5557827,88.3084574,1101,1573,1846,,,,,,1500
2022-10-29 17:17:46,191878931,-11.3,0.8,0.99,-11.7,22.5557919,88.3084608,1101,1571,1846,,,,,,1500
2022-10-29 17:17:46,191917076,-11.11,-0.76,0.59,-11.7,22.5557919,88.3084608,1102,1570,1846,,,,,,1500
2022-10-29 17:17:47,191957620,-8.93,-1.87,359.23,-11.7,22.5557919,88.3084608,1104,1570,1846,,,,,,1500
2022-10-29 17:17:47,191996664,-7.57,0.28,357.35,-11.7,22.5557919,88.3084608,1104,1570,1846,,,,,,1500
2022-10-29 17:17:47,192036710,-7.94,1.13,356.39,-11.7,22.5557919,88.3084608,1104,1570,1846,,,,,,1500
2022-10-29 17:17:47,192077969,-9.66,0.67,356.16,-11.72,22.5558003,88.308465,1107,1567,1846,,,,,,1500
2022-10-29 17:17:47,192116937,-10.93,1.71,355.65,-11.72,22.5558003,88.308465,1107,1565,1846,,,,,,1500
2022-10-29 17:17:47,192157029,-12.15,1.77,355.32,-11.72,22.5558003,88.308465,1108,1564,1846,,,,,,1500
2022-10-29 17:17:47,192196427,-12.36,0.31,355,-11.72,22.5558003,88.308465,1110,1564,1846,,,,,,1500
2022-10-29 17:17:47,192236562,-10.52,-1.11,353.89,-11.72,22.5558003,88.308465,1108,1565,1846,,,,,,1500
2022-10-29 17:17:47,192278269,-8.4,0.74,351.77,-11.72,22.5558003,88.308465,1107,1565,1846,,,,,,1500
2022-10-29 17:17:47,192317897,-8.48,1.86,350.55,-11.89,22.5558091,88.3084682,1108,1565,1846,,,,,,1500
2022-10-29 17:17:47,192357776,-10.14,1.29,350.22,-11.89,22.5558091,88.3084682,1110,1571,1845,,,,,,1500
2022-10-29 17:17:47,192396232,-11.4,2.28,349.65,-11.89,22.5558091,88.3084682,1110,1571,1842,,,,,,1500
2022-10-29 17:17:47,192436675,-12.76,2.56,349.16,-11.89,22.5558091,88.3084682,1110,1570,1836,,,,,,1500
2022-10-29 17:17:47,192478528,-13.48,1.34,348.81,-11.89,22.5558091,88.3084682,1111,1570,1836,,,,,,1500
2022-10-29 17:17:47,192517264,-11.84,-0.19,347.76,-11.37,22.5558192,88.3084678,1116,1571,1836,,,,,,1500
2022-10-29 17:17:47,192557703,-10.05,1.22,345.66,-11.37,22.5558192,88.3084678,1139,1570,1835,,,,,,1500
2022-10-29 17:17:47,192596694,-9.14,2.79,344.1,-11.37,22.5558192,88.3084678,1152,1564,1833,,,,,,1500
2022-10-29 17:17:47,192636647,-10.73,2.26,343.68,-11.37,22.5558192,88.3084678,1151,1561,1833,,,,,,1500
2022-10-29 17:17:47,192677995,-12.07,3.04,343.19,-11.37,22.5558192,88.3084678,1146,1561,1833,,,,,,1500
2022-10-29 17:17:47,192718451,-13.44,3.54,342.73,-11.28,22.5558292,88.3084675,1144,1560,1832,,,,,,1500
2022-10-29 17:17:47,192757414,-14.6,2.4,342.56,-11.28,22.5558292,88.3084675,1142,1560,1833,,,,,,1500
2022-10-29 17:17:47,192796991,-13.46,0.6,341.87,-11.28,22.5558292,88.3084675,1142,1561,1833,,,,,,1500
2022-10-29 17:17:47,192836925,-11.17,1.22,339.74,-11.28,22.5558292,88.3084675,1139,1561,1833,,,,,,1500
2022-10-29 17:17:47,192878405,-9.07,3.09,337.97,-11.28,22.5558292,88.3084675,1136,1562,1833,,,,,,1500
2022-10-29 17:17:47,192917742,-10.24,2.5,337.34,-10.57,22.5558396,88.3084662,1132,1570,1835,,,,,,1500
2022-10-29 17:17:48,192957783,-11.64,2.93,336.68,-10.57,22.5558396,88.3084662,1132,1570,1835,,,,,,1500
2022-10-29 17:17:48,192996443,-13.1,3.56,335.86,-10.57,22.5558396,88.3084662,1132,1570,1835,,,,,,1500
2022-10-29 17:17:48,193036683,-14.5,2.58,335.42,-10.57,22.5558396,88.3084662,1133,1570,1835,,,,,,1500
2022-10-29 17:17:48,193078203,-13.86,0.78,334.6,-10.57,22.5558396,88.3084662,1132,1570,1835,,,,,,1500
2022-10-29 17:17:48,193117519,-11.68,0.71,332.34,-9.78,22.5558503,88.3084653,1132,1570,1835,,,,,,1500
2022-10-29 17:17:48,193157610,-9.35,2.81,330.23,-9.78,22.5558503,88.3084653,1132,1570,1835,,,,,,1500
2022-10-29 17:17:48,193196735,-10.03,2.46,329.31,-9.78,22.5558503,88.3084653,1132,1571,1835,,,,,,1500
2022-10-29 17:17:48,193236611,-11.3,2.49,328.57,-9.78,22.5558503,88.3084653,1132,1573,1835,,,,,,1500
2022-10-29 17:17:48,193277794,-12.65,3.21,327.53,-9.78,22.5558503,88.3084653,1130,1574,1833,,,,,,1500
2022-10-29 17:17:48,193318012,-14.13,2.42,326.95,-9.49,22.5558611,88.3084635,1126,1574,1835,,,,,,1500
2022-10-29 17:17:48,193357054,-13.98,0.58,326.16,-9.49,22.5558611,88.3084635,1113,1574,1835,,,,,,1500
2022-10-29 17:17:48,193396673,-11.78,-0.22,324.07,-9.49,22.5558611,88.3084635,1117,1582,1835,,,,,,1500
2022-10-29 17:17:48,193436500,-9.71,1.94,321.69,-9.49,22.5558611,88.3084635,1126,1582,1832,,,,,,1500
2022-10-29 17:17:48,193477640,-10.12,1.98,320.59,-9.49,22.5558611,88.3084635,1113,1578,1830,,,,,,1500
2022-10-29 17:17:48,193517710,-11.3,1.84,319.89,-9.599999,22.5558693,88.3084602,1107,1577,1829,,,,,,1500
2022-10-29 17:17:48,193557869,-12.83,2.78,318.86,-9.599999,22.5558693,88.3084602,1107,1577,1829,,,,,,1500
2022-10-29 17:17:48,193596574,-14.32,2.28,318.28,-9.599999,22.5558693,88.3084602,1110,1574,1826,,,,,,1500
2022-10-29 17:17:48,193636715,-14.31,0.6,317.54,-9.599999,22.5558693,88.3084602,1113,1574,1826,,,,,,1500
2022-10-29 17:17:48,193678937,-12.13,-0.5,315.65,-9.599999,22.5558693,88.3084602,1124,1576,1826,,,,,,1500
2022-10-29 17:17:48,193717998,-10.32,1.5,313.23,-9.8,22.5558769,88.3084561,1120,1578,1826,,,,,,1500
2022-10-29 17:17:48,193757799,-10.04,1.92,311.94,-9.8,22.5558769,88.3084561,1114,1582,1826,,,,,,1500
2022-10-29 17:17:48,193797014,-11.37,1.49,311.29,-9.8,22.5558769,88.3084561,1114,1582,1826,,,,,,1500
2022-10-29 17:17:48,193836968,-12.82,2.52,310.31,-9.8,22.5558769,88.3084561,1120,1582,1826,,,,,,1500
2022-10-29 17:17:48,193877906,-14.21,2.28,309.64,-9.8,22.5558769,88.3084561,1124,1582,1826,,,,,,1500
2022-10-29 17:17:48,193917761,-14.37,0.72,308.94,-9.849999,22.5558848,88.3084505,1129,1589,1826,,,,,,1500
2022-10-29 17:17:49,193957071,-12.32,-0.71,307.36,-9.849999,22.5558848,88.3084505,1142,1590,1826,,,,,,1500
2022-10-29 17:17:49,193996535,-10.21,1.09,304.81,-9.849999,22.5558848,88.3084505,1144,1592,1826,,,,,,1500
2022-10-29 17:17:49,194036650,-9.96,1.92,303.32,-9.849999,22.5558848,88.3084505,1198,1600,1828,,,,,,1500
2022-10-29 17:17:49,194077979,-11.43,1.36,302.65,-9.849999,22.5558848,88.3084505,1202,1600,1828,,,,,,1500
2022-10-29 17:17:49,194117534,-12.71,2.61,301.75,-10.13,22.555892,88.3084451,1208,1602,1828,,,,,,1500
2022-10-29 17:17:49,194157823,-14.08,2.77,301.12,-10.13,22.555892,88.3084451,1206,1609,1829,,,,,,1500
2022-10-29 17:17:49,194196519,-14.62,1.43,300.67,-10.13,22.555892,88.3084451,1206,1608,1829,,,,,,1500
2022-10-29 17:17:49,194236643,-12.79,-0.03,299.44,-10.13,22.555892,88.3084451,1208,1600,1829,,,,,,1500
2022-10-29 17:17:49,194277803,-10.54,1.55,297.15,-10.13,22.555892,88.3084451,1208,1599,1829,,,,,,1500
2022-10-29 17:17:49,194317678,-9.52,2.75,295.4,-10.69,22.5558978,88.3084392,1209,1590,1829,,,,,,1500
2022-10-29 17:17:49,194357514,-10.75,1.87,294.68,-10.69,22.5558978,88.3084392,1209,1587,1829,,,,,,1500
2022-10-29 17:17:49,194396276,-11.91,2.73,293.85,-10.69,22.5558978,88.3084392,1208,1582,1829,,,,,,1500
2022-10-29 17:17:49,194436678,-13.47,3.09,293.14,-10.69,22.5558978,88.3084392,1209,1578,1829,,,,,,1500
2022-10-29 17:17:49,194477254,-14.51,1.81,292.78,-10.69,22.5558978,88.3084392,1211,1576,1829,,,,,,1500
2022-10-29 17:17:49,194517914,-13.43,0,291.87,-10.81,22.5559032,88.3084312,1211,1570,1828,,,,,,1500
2022-10-29 17:17:49,194557392,-11.11,0.72,289.62,-10.81,22.5559032,88.3084312,1211,1567,1826,,,,,,1500
2022-10-29 17:17:49,194596660,-9.13,2.3,287.75,-10.81,22.5559032,88.3084312,1214,1565,1826,,,,,,1500
2022-10-29 17:17:49,194636648,-10.09,1.37,287,-10.81,22.5559032,88.3084312,1218,1560,1824,,,,,,1500
2022-10-29 17:17:49,194678929,-11.38,1.72,286.28,-10.77,22.555908,88.3084224,1218,1558,1823,,,,,,1500
2022-10-29 17:17:49,194717842,-12.98,2.04,285.53,-10.77,22.555908,88.3084224,1218,1556,1823,,,,,,1500
2022-10-29 17:17:49,194757892,-14.27,0.69,285.22,-10.77,22.555908,88.3084224,1217,1556,1823,,,,,,1500
2022-10-29 17:17:49,194796980,-13.62,-1.37,284.49,-10.77,22.555908,88.3084224,1214,1556,1823,,,,,,1500
2022-10-29 17:17:49,194837006,-11.45,-1.44,282.47,-10.77,22.555908,88.3084224,1211,1554,1822,,,,,,1500
2022-10-29 17:17:49,194878584,-9,0.69,280.42,-10.77,22.555908,88.3084224,1196,1554,1822,,,,,,1500
2022-10-29 17:17:49,194917420,-9.49,0.37,279.42,-11,22.555912,88.3084139,1170,1561,1822,,,,,,1500
2022-10-29 17:17:50,194957475,-10.96,0.54,278.64,-11,22.555912,88.3084139,1155,1564,1822,,,,,,1500
2022-10-29 17:17:50,194996393,-12.51,1.33,277.65,-11,22.555912,88.3084139,1139,1570,1822,,,,,,1500
2022-10-29 17:17:50,195036747,-13.94,0.44,277.14,-11,22.555912,88.3084139,1138,1570,1820,,,,,,1500
2022-10-29 17:17:50,195077515,-13.84,-1.38,276.35,-11,22.555912,88.3084139,1133,1571,1819,,,,,,1500
2022-10-29 17:17:50,195117699,-11.64,-1.93,274.19,-10.63,22.5559145,88.3084037,1132,1573,1819,,,,,,1500
2022-10-29 17:17:50,195157074,-9.41,0.45,271.79,-10.63,22.5559145,88.3084037,1129,1574,1819,,,,,,1500
2022-10-29 17:17:50,195196516,-9.69,0.79,270.63,-10.63,22.5559145,88.3084037,1126,1574,1819,,,,,,1500
2022-10-29 17:17:50,195236452,-11.11,0.89,269.87,-10.63,22.5559145,88.3084037,1124,1574,1819,,,,,,1500
2022-10-29 17:17:50,195278245,-12.75,1.91,268.84,-10.63,22.5559145,88.3084037,1124,1574,1819,,,,,,1500
2022-10-29 17:17:50,195317918,-14.23,1.43,268.26,-10.73,22.5559167,88.3083931,1126,1576,1819,,,,,,1500
2022-10-29 17:17:50,195357780,-14.24,-0.36,267.57,-10.73,22.5559167,88.3083931,1126,1576,1819,,,,,,1500
2022-10-29 17:17:50,195396579,-12.14,-1.36,265.75,-10.73,22.5559167,88.3083931,1129,1574,1819,,,,,,1500
2022-10-29 17:17:50,195436720,-10.23,0.85,263.31,-10.73,22.5559167,88.3083931,1132,1574,1819,,,,,,1500
2022-10-29 17:17:50,195478291,-9.73,1.63,262.03,-10.73,22.5559167,88.3083931,1146,1571,1819,,,,,,1500
2022-10-29 17:17:50,195517066,-11.1,1.47,261.4,-11.18,22.555918,88.308382,1152,1565,1819,,,,,,1500
2022-10-29 17:17:50,195557795,-12.84,2.42,260.52,-11.18,22.555918,88.308382,1155,1565,1819,,,,,,1500
2022-10-29 17:17:50,195596302,-14.22,2.09,260.01,-11.18,22.555918,88.308382,1157,1565,1819,,,,,,1500
2022-10-29 17:17:50,195636685,-14.36,0.13,259.58,-11.18,22.555918,88.308382,1155,1568,1819,,,,,,1500
2022-10-29 17:17:50,195678707,-12.26,-1.45,258.21,-11.18,22.555918,88.308382,1155,1570,1819,,,,,,1500
2022-10-29 17:17:50,195718433,-10.23,0.41,255.86,-11.34,22.5559173,88.3083704,1152,1578,1819,,,,,,1500
2022-10-29 17:17:50,195757408,-9.68,1.63,254.32,-11.34,22.5559173,88.3083704,1152,1592,1819,,,,,,1500
2022-10-29 17:17:50,195797062,-11.04,1.52,253.58,-11.34,22.5559173,88.3083704,1152,1593,1819,,,,,,1500
2022-10-29 17:17:50,195836721,-12.57,2.78,252.59,-11.34,22.5559173,88.3083704,1152,1595,1819,,,,,,1500
2022-10-29 17:17:50,195878620,-14.11,3.01,251.86,-11.34,22.5559173,88.3083704,1152,1593,1819,,,,,,1500
2022-10-29 17:17:50,195917685,-14.63,1.71,251.28,-11.13,22.5559152,88.3083588,1155,1593,1819,,,,,,1500
2022-10-29 17:17:51,195957620,-13.07,0.28,250.02,-11.13,22.5559152,88.3083588,1158,1592,1819,,,,,,1500
2022-10-29 17:17:51,195996535,-10.87,2.06,247.61,-11.13,22.5559152,88.3083588,1174,1592,1819,,,,,,1500
2022-10-29 17:17:51,196036762,-10.1,3.48,245.96,-11.13,22.5559152,88.3083588,1176,1590,1819,,,,,,1500
2022-10-29 17:17:51,196078283,-11.38,3.08,245.28,-11.13,22.5559152,88.3083588,1177,1590,1819,,,,,,1500
2022-10-29 17:17:51,196117225,-12.9,3.91,244.5,-11.36,22.5559135,88.3083474,1192,1589,1819,,,,,,1500
2022-10-29 17:17:51,196157570,-14.46,4.27,243.85,-11.36,22.5559135,88.3083474,1221,1580,1819,,,,,,1500
2022-10-29 17:17:51,196196396,-15.54,2.89,243.57,-11.36,22.5559135,88.3083474,1258,1571,1819,,,,,,1500
2022-10-29 17:17:51,196236791,-14.41,0.97,242.79,-11.36,22.5559135,88.3083474,1271,1570,1819,,,,,,1500
2022-10-29 17:17:51,196277498,-12.26,1.83,240.69,-11.36,22.5559135,88.3083474,1287,1570,1819,,,,,,1500
2022-10-29 17:17:51,196317945,-10.37,3.6,238.78,-11.07,22.5559111,88.3083351,1312,1567,1817,,,,,,1500
2022-10-29 17:17:51,196357690,-11.11,3.1,237.88,-11.07,22.5559111,88.3083351,1324,1562,1817,,,,,,1500
2022-10-29 17:17:51,196396626,-12.78,3.35,237.15,-11.07,22.5559111,88.3083351,1337,1562,1817,,,,,,1500
2022-10-29 17:17:51,196436848,-14.5,3.46,236.67,-11.07,22.5559111,88.3083351,1348,1562,1817,,,,,,1500
2022-10-29 17:17:51,196478005,-15.68,1.6,236.69,-11.07,22.5559111,88.3083351,1337,1562,1817,,,,,,1500
2022-10-29 17:17:51,196517516,-14.87,-0.94,236.44,-11.11,22.5559061,88.3083243,1312,1574,1817,,,,,,1500
2022-10-29 17:17:51,196557891,-12.78,-1.3,234.85,-11.11,22.5559061,88.3083243,1268,1587,1817,,,,,,1500
2022-10-29 17:17:51,196596464,-10.04,0.95,232.91,-11.11,22.5559061,88.3083243,1242,1596,1817,,,,,,1500
2022-10-29 17:17:51,196636664,-9.9,1.52,231.67,-11.11,22.5559061,88.3083243,1240,1598,1817,,,,,,1500
2022-10-29 17:17:51,196678483,-11.58,2.21,230.63,-11.11,22.5559061,88.3083243,1234,1599,1817,,,,,,1500
2022-10-29 17:17:51,196717929,-13.28,3.21,229.57,-11.17,22.5559018,88.3083142,1231,1600,1817,,,,,,1500
2022-10-29 17:17:51,196758955,-14.58,2.38,229.02,-11.17,22.5559018,88.3083142,1227,1602,1817,,,,,,1500
2022-10-29 17:17:51,196796867,-14.3,0.51,228.36,-11.17,22.5559018,88.3083142,1224,1604,1817,,,,,,1500
2022-10-29 17:17:51,196836948,-12.19,0.23,226.33,-11.17,22.5559018,88.3083142,1224,1606,1817,,,,,,1500
2022-10-29 17:17:51,196877446,-9.73,2.83,224.06,-11.17,22.5559018,88.3083142,1218,1609,1817,,,,,,1500
2022-10-29 17:17:51,196917951,-9.73,3.33,222.86,-11.22,22.5558972,88.3083039,1218,1616,1817,,,,,,1500
2022-10-29 17:17:52,196958827,-11.32,3.55,222.05,-11.22,22.5558972,88.3083039,1217,1618,1817,,,,,,1500
2022-10-29 17:17:52,196996590,-13.16,4.75,221.06,-11.22,22.5558972,88.3083039,1217,1621,1816,,,,,,1500
2022-10-29 17:17:52,197036640,-14.61,4.18,220.62,-11.22,22.5558972,88.3083039,1217,1622,1816,,,,,,1500
2022-10-29 17:17:52,197077964,-14.74,2.39,220.15,-11.22,22.5558972,88.3083039,1217,1624,1816,,,,,,1500
2022-10-29 17:17:52,197117791,-12.9,1.62,218.59,-11.49,22.5558899,88.3082963,1218,1625,1816,,,,,,1500
2022-10-29 17:17:52,197158815,-11.18,4.17,216.3,-11.49,22.5558899,88.3082963,1231,1625,1816,,,,,,1500
2022-10-29 17:17:52,197196493,-11.17,5.21,214.91,-11.49,22.5558899,88.3082963,1258,1625,1816,,,,,,1500
2022-10-29 17:17:52,197236866,-12.88,5.33,214.2,-11.49,22.5558899,88.3082963,1271,1625,1816,,,,,,1500
2022-10-29 17:17:52,197278263,-14.95,6.65,213.39,-11.48,22.5558818,88.3082908,1337,1596,1816,,,,,,1500
2022-10-29 17:17:52,197317643,-16.62,6.47,213.12,-11.48,22.5558818,88.3082908,1363,1587,1816,,,,,,1500
2022-10-29 17:17:52,197359006,-16.82,4.31,213.2,-11.48,22.5558818,88.3082908,1385,1574,1814,,,,,,1500
2022-10-29 17:17:52,197396008,-15.03,2.65,212.44,-11.48,22.5558818,88.3082908,1406,1573,1814,,,,,,1500
2022-10-29 17:17:52,197436707,-13.23,4.31,210.6,-11.48,22.5558818,88.3082908,1407,1565,1813,,,,,,1500
2022-10-29 17:17:52,197478005,-12.78,5.38,209,-11.48,22.5558818,88.3082908,1419,1555,1814,,,,,,1500
2022-10-29 17:17:52,197517695,-13.82,4.7,208.13,-12.06,22.5558714,88.3082841,1436,1539,1814,,,,,,1500
2022-10-29 17:17:52,197559083,-16,4.69,207.52,-12.06,22.5558714,88.3082841,1476,1514,1813,,,,,,1500
2022-10-29 17:17:52,197596536,-17.61,3.54,207.44,-12.06,22.5558714,88.3082841,1482,1511,1814,,,,,,1500
2022-10-29 17:17:52,197636680,-18.02,0.32,207.9,-12.06,22.5558714,88.3082841,1486,1505,1814,,,,,,1500
2022-10-29 17:17:52,197678717,-16.47,-2.68,207.76,-12.06,22.5558714,88.3082841,1494,1501,1814,,,,,,1500
2022-10-29 17:17:52,197718044,-14.33,-2.09,206.38,-11.89,22.5558623,88.308276,1496,1500,1814,,,,,,1500
2022-10-29 17:17:52,197758984,-13.15,-0.56,204.84,-11.89,22.5558623,88.308276,1500,1500,1814,,,,,,1500
2022-10-29 17:17:52,197797040,-13.67,-0.3,203.63,-11.89,22.5558623,88.308276,1500,1500,1814,,,,,,1500
2022-10-29 17:17:52,197836875,-15.59,-0.21,202.85,-11.89,22.5558623,88.308276,1500,1500,1813,,,,,,1500
2022-10-29 17:17:52,197878081,-17.43,-0.89,202.56,-11.89,22.5558623,88.308276,1500,1500,1814,,,,,,1500
2022-10-29 17:17:52,197917624,-18.48,-3.63,202.94,-11.99,22.555853,88.3082698,1500,1500,1814,,,,,,1500
2022-10-29 17:17:53,197958769,-17.35,-6.66,202.96,-11.99,22.555853,88.3082698,1500,1500,1814,,,,,,1500
2022-10-29 17:17:53,197996275,-15.1,-6.34,201.57,-11.99,22.555853,88.3082698,1500,1500,1814,,,,,,1500
2022-10-29 17:17:53,198036722,-12.99,-4.14,199.86,-11.99,22.555853,88.3082698,1500,1500,1814,,,,,,1500
2022-10-29 17:17:53,198077997,-12.98,-3.05,198.41,-11.99,22.555853,88.3082698,1500,1500,1814,,,,,,1500
2022-10-29 17:17:53,198117772,-14.87,-2.47,197.32,-12.71,22.5558417,88.3082635,1500,1500,1814,,,,,,1500
2022-10-29 17:17:53,198158921,-16.91,-2.3,196.69,-12.71,22.5558417,88.3082635,1500,1500,1814,,,,,,1500
2022-10-29 17:17:53,198196451,-18.21,-4.21,196.66,-12.71,22.5558417,88.3082635,1500,1500,1814,,,,,,1500
2022-10-29 17:17:53,198236842,-17.62,-6.85,196.52,-12.71,22.5558417,88.3082635,1500,1500,1814,,,,,,1500
2022-10-29 17:17:53,198277495,-15.6,-6.95,195.05,-12.71,22.5558417,88.3082635,1500,1500,1814,,,,,,1500
2022-10-29 17:17:53,198318043,-13.3,-4.42,193.09,-12.76,22.5558328,88.3082553,1500,1501,1814,,,,,,1500
2022-10-29 17:17:53,198359223,-13.24,-2.97,191.47,-12.76,22.5558328,88.3082553,1500,1505,1814,,,,,,1500
2022-10-29 17:17:53,198396414,-15.1,-2.38,190.23,-12.76,22.5558328,88.3082553,1500,1510,1814,,,,,,1500
2022-10-29 17:17:53,198436802,-16.91,-1.95,189.42,-12.76,22.5558328,88.3082553,1500,1510,1814,,,,,,1500
2022-10-29 17:17:53,198477852,-18.37,-3.53,189.27,-12.76,22.5558328,88.3082553,1500,1510,1814,,,,,,1500
2022-10-29 17:17:53,198517437,-18.23,-6.33,189.23,-13.23,22.5558213,88.3082502,1500,1511,1813,,,,,,1500
2022-10-29 17:17:53,198559058,-16.31,-7,187.92,-13.23,22.5558213,88.3082502,1500,1517,1813,,,,,,1500
2022-10-29 17:17:53,198596006,-14.07,-4.31,185.88,-13.23,22.5558213,88.3082502,1500,1521,1813,,,,,,1500
2022-10-29 17:17:53,198636667,-13.99,-2.47,184.12,-13.23,22.5558213,88.3082502,1500,1526,1813,,,,,,1500
2022-10-29 17:17:53,198678251,-15.62,-1.66,182.75,-13.23,22.5558213,88.3082502,1500,1532,1813,,,,,,1500
2022-10-29 17:17:53,198718393,-17.39,-1.02,181.76,-13.42,22.5558101,88.308245,1500,1536,1813,,,,,,1500
2022-10-29 17:17:53,198758990,-18.97,-2.26,181.49,-13.42,22.5558101,88.308245,1500,1536,1813,,,,,,1500
2022-10-29 17:17:53,198797019,-19.07,-4.98,181.48,-13.42,22.5558101,88.308245,1500,1536,1813,,,,,,1500
2022-10-29 17:17:53,198836988,-17.44,-6.06,180.38,-13.42,22.5558101,88.308245,1502,1539,1813,,,,,,1500
2022-10-29 17:17:53,198877837,-15.66,-3.48,178.34,-13.42,22.5558101,88.308245,1504,1552,1813,,,,,,1500
2022-10-29 17:17:53,198917815,-15.77,-1.32,176.42,-13.33,22.555798,88.3082413,1501,1558,1813,,,,,,1500
2022-10-29 17:17:54,198958748,-17.41,-0.17,174.95,-13.33,22.555798,88.3082413,1501,1561,1813,,,,,,1500
2022-10-29 17:17:54,198996540,-19.57,0.92,173.89,-13.33,22.555798,88.3082413,1507,1567,1813,,,,,,1500
2022-10-29 17:17:54,199036339,-21.06,0.27,173.53,-13.33,22.555798,88.3082413,1526,1570,1813,,,,,,1500
2022-10-29 17:17:54,199077664,-21.14,-2.13,173.53,-13.33,22.555798,88.3082413,1543,1570,1813,,,,,,1500
2022-10-29 17:17:54,199117500,-19.52,-3.52,172.67,-13.39,22.5557842,88.3082395,1561,1571,1813,,,,,,1500
2022-10-29 17:17:54,199158820,-18.25,-1.23,170.62,-13.39,22.5557842,88.3082395,1574,1578,1813,,,,,,1500
2022-10-29 17:17:54,199196006,-18.26,1.03,168.52,-13.39,22.5557842,88.3082395,1583,1582,1813,,,,,,1500
2022-10-29 17:17:54,199236681,-19.87,2.2,167,-13.39,22.5557842,88.3082395,1583,1583,1813,,,,,,1500
2022-10-29 17:17:54,199277941,-22.19,3.28,165.87,-13.39,22.5557842,88.3082395,1584,1583,1813,,,,,,1500
2022-10-29 17:17:54,199318392,-23.86,2.93,165.44,-13.55,22.5557705,88.3082384,1586,1583,1813,,,,,,1500
2022-10-29 17:17:54,199359064,-24.29,0.64,165.58,-13.55,22.5557705,88.3082384,1587,1582,1814,,,,,,1500
2022-10-29 17:17:54,199396540,-22.99,-1.17,165.09,-13.55,22.5557705,88.3082384,1587,1574,1813,,,,,,1500
2022-10-29 17:17:54,199436726,-21.8,0.41,163.06,-13.55,22.5557705,88.3082384,1590,1568,1813,,,,,,1500
2022-10-29 17:17:54,199477436,-21.88,2.62,160.67,-13.55,22.5557705,88.3082384,1600,1567,1814,,,,,,1500
2022-10-29 17:17:54,199517733,-23.2,3.7,158.9,-13.77,22.5557569,88.308239,1602,1565,1813,,,,,,1500
2022-10-29 17:17:54,199558847,-25.4,4.39,157.63,-13.77,22.5557569,88.308239,1608,1564,1814,,,,,,1500
2022-10-29 17:17:54,199596441,-27.28,3.88,157.14,-13.77,22.5557569,88.308239,1608,1561,1813,,,,,,1500
2022-10-29 17:17:54,199636387,-27.95,1.4,157.47,-13.77,22.5557569,88.308239,1608,1560,1813,,,,,,1500
2022-10-29 17:17:54,199678232,-26.8,-1.11,157.43,-13.77,22.5557569,88.308239,1608,1554,1813,,,,,,1500
2022-10-29 17:17:54,199718464,-25.79,-0.33,155.72,-14.02,22.5557434,88.3082431,1631,1571,1814,,,,,,1500
2022-10-29 17:17:54,199759006,-25.2,1.89,153.25,-14.02,22.5557434,88.3082431,1634,1574,1814,,,,,,1500
2022-10-29 17:17:54,199796791,-26.22,3.32,151.31,-14.02,22.5557434,88.3082431,1634,1574,1814,,,,,,1500
2022-10-29 17:17:54,199836948,-28.22,4.17,149.89,-14.02,22.5557434,88.3082431,1634,1574,1814,,,,,,1500
2022-10-29 17:17:54,199878426,-30.15,4.05,149.27,-14.42,22.5557304,88.30825,1634,1573,1813,,,,,,1500
2022-10-29 17:17:54,199917753,-31.18,2,149.67,-14.42,22.5557304,88.30825,1630,1570,1813,,,,,,1500
2022-10-29 17:17:55,199958834,-30.27,-0.61,150.04,-14.42,22.5557304,88.30825,1630,1570,1813,,,,,,1500
2022-10-29 17:17:55,199996635,-28.67,-0.65,148.6,-14.42,22.5557304,88.30825,1631,1568,1814,,,,,,1500
2022-10-29 17:17:55,200036707,-26.85,1.61,146,-14.42,22.5557304,88.30825,1643,1570,1814,,,,,,1500
2022-10-29 17:17:55,200077762,-27.11,3.05,143.9,-14.42,22.5557304,88.30825,1647,1571,1814,,,,,,1500
2022-10-29 17:17:55,200117821,-28.94,3.6,142.35,-14.67,22.5557187,88.3082572,1652,1578,1814,,,,,,1500
2022-10-29 17:17:55,200158513,-31.07,3.69,141.38,-14.67,22.5557187,88.3082572,1653,1577,1814,,,,,,1500
2022-10-29 17:17:55,200196646,-32.61,1.93,141.59,-14.67,22.5557187,88.3082572,1653,1576,1814,,,,,,1500
2022-10-29 17:17:55,200236278,-32.31,-0.79,142.17,-14.67,22.5557187,88.3082572,1655,1578,1814,,,,,,1500
2022-10-29 17:17:55,200277642,-30.47,-1.65,140.95,-14.67,22.5557187,88.3082572,1656,1584,1814,,,,,,1500
2022-10-29 17:17:55,200318396,-27.75,0.58,138.19,-15.56,22.5557048,88.3082672,1653,1589,1814,,,,,,1500
2022-10-29 17:17:55,200358963,-27.31,2.24,135.87,-15.56,22.5557048,88.3082672,1653,1602,1814,,,,,,1500
2022-10-29 17:17:55,200396060,-29.04,2.91,134.01,-15.56,22.5557048,88.3082672,1652,1630,1816,,,,,,1500
2022-10-29 17:17:55,200436799,-31.3,3.45,132.53,-15.56,22.5557048,88.3082672,1642,1631,1816,,,,,,1500
2022-10-29 17:17:55,200477652,-33.24,2.57,132.16,-15.56,22.5557048,88.3082672,1638,1655,1816,,,,,,1500
2022-10-29 17:17:55,200517713,-33.4,0.43,132.42,-15.91,22.5556916,88.3082764,1638,1671,1816,,,,,,1500
2022-10-29 17:17:55,200559260,-31.48,-0.44,131.14,-15.91,22.5556916,88.3082764,1625,1688,1816,,,,,,1500
2022-10-29 17:17:55,200596493,-28.57,2,128.04,-15.91,22.5556916,88.3082764,1606,1699,1816,,,,,,1500
2022-10-29 17:17:55,200636796,-27.58,4.19,125.27,-15.91,22.5556916,88.3082764,1605,1719,1816,,,,,,1500
2022-10-29 17:17:55,200677856,-29.16,5.6,123.01,-15.91,22.5556916,88.3082764,1602,1722,1816,,,,,,1500
2022-10-29 17:17:55,200718044,-31.92,7.55,120.72,-15.72,22.5556823,88.3082846,1600,1731,1816,,,,,,1500
2022-10-29 17:17:55,200759082,-34.25,8.25,119.35,-15.72,22.5556823,88.3082846,1596,1750,1816,,,,,,1500
2022-10-29 17:17:55,200796936,-34.64,7.32,118.67,-15.72,22.5556823,88.3082846,1586,1751,1817,,,,,,1500
2022-10-29 17:17:55,200836767,-32.66,6.76,116.86,-15.72,22.5556823,88.3082846,1587,1784,1817,,,,,,1500
2022-10-29 17:17:55,200878065,-29.93,9.12,113.3,-15.72,22.5556823,88.3082846,1589,1794,1817,,,,,,1500
2022-10-29 17:17:55,200917823,-28.62,10.77,110.39,-16.58,22.5556758,88.3082959,1587,1804,1817,,,,,,1500
2022-10-29 17:17:56,200958797,-30.17,11.62,108.25,-16.58,22.5556758,88.3082959,1584,1807,1817,,,,,,1500
2022-10-29 17:17:56,200996489,-33,13.94,105.78,-16.58,22.5556758,88.3082959,1574,1808,1819,,,,,,1500
2022-10-29 17:17:56,201036643,-35.69,15.61,103.87,-16.58,22.5556758,88.3082959,1571,1808,1819,,,,,,1500
2022-10-29 17:17:56,201077857,-36.67,15.52,102.86,-16.58,22.5556758,88.3082959,1568,1808,1819,,,,,,1500
2022-10-29 17:17:56,201117316,-35.01,14.96,101.28,-17.16,22.5556742,88.3083073,1548,1773,1819,,,,,,1500
2022-10-29 17:17:56,201158824,-32.36,16.74,97.8,-17.16,22.5556742,88.3083073,1540,1763,1819,,,,,,1500
2022-10-29 17:17:56,201196667,-31,17.7,94.92,-17.16,22.5556742,88.3083073,1539,1762,1819,,,,,,1500
2022-10-29 17:17:56,201236681,-31.37,16.58,93.67,-17.16,22.5556742,88.3083073,1532,1747,1819,,,,,,1500
2022-10-29 17:17:56,201277426,-33.81,16.92,92.37,-17.16,22.5556742,88.3083073,1516,1708,1819,,,,,,1500
2022-10-29 17:17:56,201318428,-36.42,17.4,91.38,-16.96,22.5556729,88.308319,1514,1684,1819,,,,,,1500
2022-10-29 17:17:56,201358694,-37.89,15.92,91.7,-16.96,22.5556729,88.308319,1516,1653,1819,,,,,,1500
2022-10-29 17:17:56,201396460,-36.48,13.15,92.12,-16.96,22.5556729,88.308319,1508,1618,1819,,,,,,1500
2022-10-29 17:17:56,201436500,-34,12.09,90.17,-16.96,22.5556729,88.308319,1508,1604,1819,,,,,,1500
2022-10-29 17:17:56,201477895,-31.14,12.29,87.58,-16.96,22.5556729,88.308319,1510,1596,1819,,,,,,1500
2022-10-29 17:17:56,201517852,-30.52,10.97,86.05,-16.43,22.5556741,88.3083302,1510,1570,1819,,,,,,1500
2022-10-29 17:17:56,201559072,-32.02,9.44,85,-16.43,22.5556741,88.3083302,1507,1568,1819,,,,,,1500
2022-10-29 17:17:56,201596442,-34.26,7.82,84.49,-16.43,22.5556741,88.3083302,1516,1561,1819,,,,,,1500
2022-10-29 17:17:56,201636786,-35.8,4.61,85.24,-16.43,22.5556741,88.3083302,1516,1556,1819,,,,,,1500
2022-10-29 17:17:56,201678795,-35.22,0.6,86.18,-16.43,22.5556741,88.3083302,1516,1556,1819,,,,,,1500
2022-10-29 17:17:56,201718046,-32.31,-1.84,84.91,-15.92,22.5556796,88.3083437,1516,1556,1819,,,,,,1500
2022-10-29 17:17:56,201759249,-29.06,-1.17,82.45,-15.92,22.5556796,88.3083437,1520,1586,1819,,,,,,1500
2022-10-29 17:17:56,201796959,-27.73,-1.1,80.33,-15.92,22.5556796,88.3083437,1538,1593,1819,,,,,,1500
2022-10-29 17:17:56,201836888,-28.76,-1.53,78.7,-15.92,22.5556796,88.3083437,1538,1608,1819,,,,,,1500
2022-10-29 17:17:56,201878260,-31.33,-1.73,77.39,-15.92,22.5556796,88.3083437,1545,1621,1819,,,,,,1500
2022-10-29 17:17:56,201917627,-33.24,-3.29,77.21,-15.98,22.5556838,88.3083573,1549,1637,1819,,,,,,1500
2022-10-29 17:17:57,201958921,-33.41,-5.88,77.53,-15.98,22.5556838,88.3083573,1552,1671,1819,,,,,,1500
2022-10-29 17:17:57,201996538,-30.7,-7.26,75.99,-15.98,22.5556838,88.3083573,1554,1688,1819,,,,,,1500
2022-10-29 17:17:57,202036316,-26.9,-5.18,73.01,-15.98,22.5556838,88.3083573,1555,1726,1819,,,,,,1500
2022-10-29 17:17:57,202078475,-25.25,-3.61,70.53,-15.98,22.5556838,88.3083573,1570,1760,1819,,,,,,1500
2022-10-29 17:17:57,202117504,-26.25,-2.19,68.36,-15.85,22.5556874,88.3083686,1577,1770,1819,,,,,,1500
2022-10-29 17:17:57,202158789,-28.67,0.22,66.06,-15.85,22.5556874,88.3083686,1576,1790,1819,,,,,,1500
2022-10-29 17:17:57,202196620,-30.78,1.48,64.59,-15.85,22.5556874,88.3083686,1580,1798,1819,,,,,,1500
2022-10-29 17:17:57,202236690,-31.02,1.2,63.59,-15.85,22.5556874,88.3083686,1580,1795,1819,,,,,,1500
2022-10-29 17:17:57,202278060,-28.74,1.17,61.46,-15.85,22.5556874,88.3083686,1578,1806,1819,,,,,,1500
2022-10-29 17:17:57,202317793,-25.18,3.79,58.02,-15.57,22.5556947,88.3083775,1577,1795,1819,,,,,,1500
2022-10-29 17:17:57,202358871,-23.37,4.66,55.71,-15.57,22.5556947,88.3083775,1574,1794,1819,,,,,,1500
2022-10-29 17:17:57,202396076,-24.39,4.6,54.28,-15.57,22.5556947,88.3083775,1573,1782,1819,,,,,,1500
2022-10-29 17:17:57,202436777,-26.76,6.44,52.7,-15.57,22.5556947,88.3083775,1565,1773,1819,,,,,,1500
2022-10-29 17:17:57,202477819,-29.06,7.68,51.63,-14.52,22.5557043,88.3083823,1562,1773,1819,,,,,,1500
2022-10-29 17:17:57,202516974,-29.75,7.19,51.14,-14.52,22.5557043,88.3083823,1562,1770,1819,,,,,,1500
2022-10-29 17:17:57,202559270,-27.68,6.27,49.92,-14.52,22.5557043,88.3083823,1561,1750,1819,,,,,,1500
2022-10-29 17:17:57,202596452,-24.48,7.99,47.13,-14.52,22.5557043,88.3083823,1552,1741,1819,,,,,,1500
2022-10-29 17:17:57,202636462,-22.69,8.85,44.8,-14.52,22.5557043,88.3083823,1543,1724,1819,,,,,,1500
2022-10-29 17:17:57,202678719,-23.07,7.82,43.5,-14.52,22.5557043,88.3083823,1536,1706,1819,,,,,,1500
2022-10-29 17:17:57,202718453,-25.37,8.27,42.25,-13.9,22.5557125,88.3083874,1533,1696,1819,,,,,,1500
2022-10-29 17:17:57,202759229,-27.52,8.53,41.44,-13.9,22.5557125,88.3083874,1533,1686,1819,,,,,,1500
2022-10-29 17:17:57,202796945,-28.76,6.86,41.47,-13.9,22.5557125,88.3083874,1533,1671,1819,,,,,,1500
2022-10-29 17:17:57,202836977,-27.25,4.37,41.15,-13.9,22.5557125,88.3083874,1532,1669,1819,,,,,,1500
2022-10-29 17:17:57,202878571,-24.94,4.45,38.98,-13.69,22.5557212,88.3083941,1530,1669,1819,,,,,,1500
2022-10-29 17:17:57,202916795,-22.4,5.48,36.47,-13.69,22.5557212,88.3083941,1518,1652,1819,,,,,,1500
2022-10-29 17:17:58,202958914,-22.16,5,34.78,-13.69,22.5557212,88.3083941,1518,1642,1819,,,,,,1500
2022-10-29 17:17:58,202996231,-23.88,4.77,33.41,-13.69,22.5557212,88.3083941,1516,1638,1819,,,,,,1500
2022-10-29 17:17:58,203036627,-25.82,4.53,32.45,-13.69,22.5557212,88.3083941,1516,1637,1819,,,,,,1500
2022-10-29 17:17:58,203077476,-27.33,2.48,32.38,-13.69,22.5557212,88.3083941,1516,1636,1819,,,,,,1500
2022-10-29 17:17:58,203117735,-26.55,-0.45,32.25,-12.65,22.5557323,88.3083976,1521,1637,1819,,,,,,1500
