Seq,Stamp,TimeUS,Roll,Pitch,Yaw,Alt,Lat,Lng,C1_Roll,C2_Pitch,C3_Throttle,,T_US,Roll,Pitch,Yaw,x,y,z
198,17:34.2,179654476,45.08,-5.59,61.29,-12.06,22.5555982,88.3082726,1500,1500,987,,0,45.08,-5.59,61.29,0,0,0
423,17:34.2,179697878,42.66,-4.62,60.23,-12.07,22.555598,88.3082745,1500,1500,987,,43402,42.66,-4.62,60.23,-2E-07,1.9E-06,-0.01
649,17:34.3,179733964,40.29,-3.7,59.38,-12.07,22.555598,88.3082745,1500,1500,987,,79488,40.29,-3.7,59.38,-2E-07,1.9E-06,-0.01
879,17:34.3,179774486,37.83,-2.72,58.68,-12.07,22.555598,88.3082745,1500,1500,987,,120010,37.83,-2.72,58.68,-2E-07,1.9E-06,-0.01
1109,17:34.4,179841066,35.23,-1.15,58.16,-12.07,22.555598,88.3082745,1500,1500,987,,186590,35.23,-1.15,58.16,-2E-07,1.9E-06,-0.01
1224,17:34.5,179912725,33.88,-1.25,57.6,-11.62,22.5555985,88.3082753,1500,1500,987,,258249,33.88,-1.25,57.6,3E-07,2.7E-06,0.44
1418,17:34.5,179957813,33.02,-2.24,57.9,-11.62,22.5555985,88.3082753,1500,1500,987,,303337,33.02,-2.24,57.9,3E-07,2.7E-06,0.44
1616,17:34.5,179996965,32.33,-4.04,58.42,-11.62,22.5555985,88.3082753,1500,1500,987,,342489,32.33,-4.04,58.42,3E-07,2.7E-06,0.44
1650,17:34.6,180036896,32.13,-6.94,58.61,-11.62,22.5555985,88.3082753,1500,1500,987,,382420,32.13,-6.94,58.61,3E-07,2.7E-06,0.44
1693,17:34.6,180078457,32.97,-9.91,58.09,-11.46,22.5555989,88.3082764,1500,1500,987,,423981,32.97,-9.91,58.09,7E-07,3.8E-06,0.6
1731,17:34.7,180116701,34.14,-12.69,56.88,-11.46,22.5555989,88.3082764,1500,1500,987,,462225,34.14,-12.69,56.88,7E-07,3.8E-06,0.6
1774,17:34.7,180158773,34.79,-14.84,55.53,-11.46,22.5555989,88.3082764,1500,1500,987,,504297,34.79,-14.84,55.53,7E-07,3.8E-06,0.6
1810,17:34.7,180196471,35.72,-16.07,54.23,-11.46,22.5555989,88.3082764,1500,1500,987,,541995,35.72,-16.07,54.23,7E-07,3.8E-06,0.6
1846,17:34.8,180236714,37.11,-16.45,52.84,-11.46,22.5555989,88.3082764,1500,1500,987,,582238,37.11,-16.45,52.84,7E-07,3.8E-06,0.6
1890,17:34.8,180278430,38.63,-16.52,51.42,-11.68,22.5555992,88.3082772,1500,1500,987,,623954,38.63,-16.52,51.42,1E-06,4.6E-06,0.38
1927,17:34.9,180317830,39.68,-16.28,50.31,-11.68,22.5555992,88.3082772,1500,1500,987,,663354,39.68,-16.28,50.31,1E-06,4.6E-06,0.38
1969,17:34.9,180358893,40.64,-16,49.24,-11.68,22.5555992,88.3082772,1500,1500,987,,704417,40.64,-16,49.24,1E-06,4.6E-06,0.38
2006,17:34.9,180396802,40.82,-15.75,48.13,-11.68,22.5555992,88.3082772,1500,1500,987,,742326,40.82,-15.75,48.13,1E-06,4.6E-06,0.38
2043,17:35.0,180436687,40.91,-15.22,47.12,-11.68,22.5555992,88.3082772,1500,1500,987,,782211,40.91,-15.22,47.12,1E-06,4.6E-06,0.38
2086,17:35.0,180477945,40.57,-14.34,46.33,-11.78,22.5555999,88.3082779,1500,1500,987,,823469,40.57,-14.34,46.33,1.7E-06,5.3E-06,0.28
2121,17:35.1,180517410,39.73,-13.11,45.81,-11.78,22.5555999,88.3082779,1500,1500,987,,862934,39.73,-13.11,45.81,1.7E-06,5.3E-06,0.28
2165,17:35.1,180559081,38.58,-11.56,45.48,-11.78,22.5555999,88.3082779,1500,1500,987,,904605,38.58,-11.56,45.48,1.7E-06,5.3E-06,0.28
2202,17:35.1,180596718,37.02,-9.93,45.15,-11.78,22.5555999,88.3082779,1500,1500,987,,942242,37.02,-9.93,45.15,1.7E-06,5.3E-06,0.28
2242,17:35.2,180636831,35.51,-8.24,44.75,-11.78,22.5555999,88.3082779,1500,1500,987,,982355,35.51,-8.24,44.75,1.7E-06,5.3E-06,0.28
2286,17:35.2,180678767,34.08,-6.65,44.34,-11.59,22.5556006,88.3082775,1500,1500,987,,1024291,34.08,-6.65,44.34,2.4E-06,4.9E-06,0.47
2327,17:35.3,180717930,32.25,-5.28,44,-11.59,22.5556006,88.3082775,1500,1500,987,,1063454,32.25,-5.28,44,2.4E-06,4.9E-06,0.47
2369,17:35.3,180759267,30.44,-4.15,43.79,-11.59,22.5556006,88.3082775,1500,1500,987,,1104791,30.44,-4.15,43.79,2.4E-06,4.9E-06,0.47
2404,17:35.3,180796796,28.57,-3.33,43.67,-11.59,22.5556006,88.3082775,1500,1500,987,,1142320,28.57,-3.33,43.67,2.4E-06,4.9E-06,0.47
2441,17:35.4,180837043,26.75,-2.74,43.68,-11.59,22.5556006,88.3082775,1500,1500,987,,1182567,26.75,-2.74,43.68,2.4E-06,4.9E-06,0.47
2485,17:35.4,180878726,24.93,-2.37,43.9,-11.12,22.555601,88.308277,1500,1500,987,,1224250,24.93,-2.37,43.9,2.8E-06,4.4E-06,0.94
2522,17:35.5,180916986,23.05,-2.44,44.3,-11.12,22.555601,88.308277,1500,1500,987,,1262510,23.05,-2.44,44.3,2.8E-06,4.4E-06,0.94
2563,17:35.5,180958937,21.4,-2.73,44.92,-11.12,22.555601,88.308277,1500,1500,987,,1304461,21.4,-2.73,44.92,2.8E-06,4.4E-06,0.94
2601,17:35.5,180996698,19.77,-3.24,45.7,-11.12,22.555601,88.308277,1500,1500,987,,1342222,19.77,-3.24,45.7,2.8E-06,4.4E-06,0.94
2639,17:35.6,181036752,18.21,-3.96,46.69,-11.12,22.555601,88.308277,1500,1500,987,,1382276,18.21,-3.96,46.69,2.8E-06,4.4E-06,0.94
2683,17:35.6,181077924,16.85,-4.67,47.81,-11.05,22.5556009,88.3082772,1500,1500,987,,1423448,16.85,-4.67,47.81,2.7E-06,4.6E-06,1.01
2720,17:35.7,181116906,15.51,-5.4,49,-11.05,22.5556009,88.3082772,1500,1500,987,,1462430,15.51,-5.4,49,2.7E-06,4.6E-06,1.01
2764,17:35.7,181158871,14.14,-6.16,50.33,-11.05,22.5556009,88.3082772,1500,1500,987,,1504395,14.14,-6.16,50.33,2.7E-06,4.6E-06,1.01
2802,17:35.7,181196664,12.97,-6.74,51.77,-11.05,22.5556009,88.3082772,1500,1500,987,,1542188,12.97,-6.74,51.77,2.7E-06,4.6E-06,1.01
2840,17:35.8,181236728,11.65,-7.21,53.33,-11.05,22.5556009,88.3082772,1500,1500,987,,1582252,11.65,-7.21,53.33,2.7E-06,4.6E-06,1.01
2883,17:35.8,181278469,10.37,-7.52,54.99,-10.92,22.5556003,88.3082767,1500,1500,987,,1623993,10.37,-7.52,54.99,2.1E-06,4.1E-06,1.14
2919,17:35.9,181317063,9.14,-7.83,56.75,-10.92,22.5556003,88.3082767,1500,1500,987,,1662587,9.14,-7.83,56.75,2.1E-06,4.1E-06,1.14
2962,17:35.9,181358938,7.96,-8.21,58.57,-10.92,22.5556003,88.3082767,1500,1500,987,,1704462,7.96,-8.21,58.57,2.1E-06,4.1E-06,1.14
2999,17:35.9,181396462,6.97,-8.63,60.36,-10.92,22.5556003,88.3082767,1500,1500,987,,1741986,6.97,-8.63,60.36,2.1E-06,4.1E-06,1.14
3037,17:36.0,181436642,5.9,-8.98,62.06,-10.92,22.5556003,88.3082767,1500,1500,987,,1782166,5.9,-8.98,62.06,2.1E-06,4.1E-06,1.14
3080,17:36.0,181478066,4.96,-9.38,63.59,-10.77,22.5555993,88.3082759,1500,1500,987,,1823590,4.96,-9.38,63.59,1.1E-06,3.3E-06,1.29
3118,17:36.1,181517393,4.18,-9.69,64.81,-10.77,22.5555993,88.3082759,1500,1500,987,,1862917,4.18,-9.69,64.81,1.1E-06,3.3E-06,1.29
3158,17:36.1,181559031,3.66,-9.9,65.62,-10.77,22.5555993,88.3082759,1500,1500,987,,1904555,3.66,-9.9,65.62,1.1E-06,3.3E-06,1.29
3196,17:36.1,181596735,3.33,-10.04,66.11,-10.77,22.5555993,88.3082759,1500,1500,987,,1942259,3.33,-10.04,66.11,1.1E-06,3.3E-06,1.29
3234,17:36.2,181636659,3.05,-10.18,66.37,-10.77,22.5555993,88.3082759,1500,1500,987,,1982183,3.05,-10.18,66.37,1.1E-06,3.3E-06,1.29
3280,17:36.2,181678632,3.03,-10.27,66.49,-10.58,22.5555986,88.308275,1500,1500,1158,,2024156,3.03,-10.27,66.49,4E-07,2.4E-06,1.48
3317,17:36.3,181717394,3.11,-10.29,66.5,-10.58,22.5555986,88.308275,1500,1500,1310,,2062918,3.11,-10.29,66.5,4E-07,2.4E-06,1.48
3360,17:36.3,181758958,3.32,-10.21,66.34,-10.58,22.5555986,88.308275,1500,1500,1425,,2104482,3.32,-10.21,66.34,4E-07,2.4E-06,1.48
3398,17:36.3,181797053,3.58,-10.09,66.05,-10.58,22.5555986,88.308275,1500,1500,1511,,2142577,3.58,-10.09,66.05,4E-07,2.4E-06,1.48
3435,17:36.4,181837037,3.96,-9.77,65.65,-10.58,22.5555986,88.308275,1500,1500,1511,,2182561,3.96,-9.77,65.65,4E-07,2.4E-06,1.48
3479,17:36.4,181879006,4.42,-9.24,65.04,-10.79,22.5555982,88.3082746,1500,1500,1511,,2224530,4.42,-9.24,65.04,0,2E-06,1.27
3515,17:36.5,181916646,4.41,-8.47,64.23,-10.79,22.5555982,88.3082746,1500,1500,1510,,2262170,4.41,-8.47,64.23,0,2E-06,1.27
3557,17:36.5,181958889,4.69,-7.48,63.21,-10.79,22.5555982,88.3082746,1500,1500,1510,,2304413,4.69,-7.48,63.21,0,2E-06,1.27
3595,17:36.5,181996297,4.42,-5.29,62.39,-10.79,22.5555982,88.3082746,1500,1500,1510,,2341821,4.42,-5.29,62.39,0,2E-06,1.27
3632,17:36.6,182036734,4.12,-3.02,61.81,-10.79,22.5555982,88.3082746,1500,1500,1508,,2382258,4.12,-3.02,61.81,0,2E-06,1.27
3677,17:36.6,182078476,4.13,-1.48,61.43,-11.56,22.555598,88.3082755,1500,1500,1507,,2424000,4.13,-1.48,61.43,-2E-07,2.9E-06,0.5
3715,17:36.7,182117010,4.58,-1.62,61.39,-11.56,22.555598,88.3082755,1500,1500,1507,,2462534,4.58,-1.62,61.39,-2E-07,2.9E-06,0.5
3757,17:36.7,182158926,4.85,-5.01,61.57,-11.56,22.555598,88.3082755,1500,1500,1505,,2504450,4.85,-5.01,61.57,-2E-07,2.9E-06,0.5
3797,17:36.7,182196761,6.18,-9.91,61.81,-11.56,22.555598,88.3082755,1500,1500,1504,,2542285,6.18,-9.91,61.81,-2E-07,2.9E-06,0.5
3834,17:36.8,182236732,8.98,-16.02,61.24,-11.56,22.555598,88.3082755,1500,1500,1502,,2582256,8.98,-16.02,61.24,-2E-07,2.9E-06,0.5
3878,17:36.8,182277944,11.37,-20.83,60.93,-11.51,22.5555994,88.3082771,1500,1500,1470,,2623468,11.37,-20.83,60.93,1.2E-06,4.5E-06,0.55
3914,17:36.9,182317768,11.79,-20.81,62.11,-11.51,22.5555994,88.3082771,1500,1500,1429,,2663292,11.79,-20.81,62.11,1.2E-06,4.5E-06,0.55
3955,17:36.9,182358890,10.12,-19.65,64.25,-11.51,22.5555994,88.3082771,1500,1500,1266,,2704414,10.12,-19.65,64.25,1.2E-06,4.5E-06,0.55
3993,17:36.9,182396807,7.19,-19.92,66.89,-11.51,22.5555994,88.3082771,1500,1500,1144,,2742331,7.19,-19.92,66.89,1.2E-06,4.5E-06,0.55
4030,17:37.0,182436679,5.83,-18.93,69.97,-11.51,22.5555994,88.3082771,1500,1500,1009,,2782203,5.83,-18.93,69.97,1.2E-06,4.5E-06,0.55
4073,17:37.0,182478409,6.06,-17.54,71.64,-11.6,22.5556019,88.3082784,1500,1500,987,,2823933,6.06,-17.54,71.64,3.7E-06,5.8E-06,0.46
4110,17:37.1,182516649,5.94,-16.65,71.76,-11.6,22.5556019,88.3082784,1500,1500,987,,2862173,5.94,-16.65,71.76,3.7E-06,5.8E-06,0.46
4153,17:37.1,182558951,4.68,-15.3,71.87,-11.6,22.5556019,88.3082784,1500,1500,987,,2904475,4.68,-15.3,71.87,3.7E-06,5.8E-06,0.46
4192,17:37.1,182596469,4.13,-13.47,72.17,-11.6,22.5556019,88.3082784,1500,1500,987,,2941993,4.13,-13.47,72.17,3.7E-06,5.8E-06,0.46
4229,17:37.2,182636738,4.71,-12.08,72.09,-11.6,22.5556019,88.3082784,1500,1500,987,,2982262,4.71,-12.08,72.09,3.7E-06,5.8E-06,0.46
4273,17:37.2,182678818,5.32,-10.9,71.63,-11.58,22.5556027,88.3082781,1500,1500,987,,3024342,5.32,-10.9,71.63,4.5E-06,5.5E-06,0.48
4312,17:37.3,182717957,5.49,-9.33,71.32,-11.58,22.5556027,88.3082781,1500,1500,987,,3063481,5.49,-9.33,71.32,4.5E-06,5.5E-06,0.48
4356,17:37.3,182759410,5.7,-7.64,71.23,-11.58,22.5556027,88.3082781,1500,1500,987,,3104934,5.7,-7.64,71.23,4.5E-06,5.5E-06,0.48
4394,17:37.3,182797275,5.53,-6.56,71.19,-11.58,22.5556027,88.3082781,1500,1500,987,,3142799,5.53,-6.56,71.19,4.5E-06,5.5E-06,0.48
4431,17:37.4,182837077,5.11,-5.86,71.01,-11.58,22.5556027,88.3082781,1500,1500,987,,3182601,5.11,-5.86,71.01,4.5E-06,5.5E-06,0.48
4474,17:37.4,182878386,4.91,-5.18,70.79,-11.36,22.5556032,88.3082773,1500,1500,987,,3223910,4.91,-5.18,70.79,5E-06,4.7E-06,0.7
4511,17:37.5,182917068,4.86,-5.35,70.58,-11.36,22.5556032,88.3082773,1500,1500,987,,3262592,4.86,-5.35,70.58,5E-06,4.7E-06,0.7
4554,17:37.5,182958948,4.25,-6.74,70.38,-11.36,22.5556032,88.3082773,1500,1500,987,,3304472,4.25,-6.74,70.38,5E-06,4.7E-06,0.7
4591,17:37.5,182996664,3.72,-7.93,69.93,-11.36,22.5556032,88.3082773,1500,1500,987,,3342188,3.72,-7.93,69.93,5E-06,4.7E-06,0.7
4629,17:37.6,183036534,2.99,-9.1,69.28,-11.36,22.5556032,88.3082773,1500,1500,987,,3382058,2.99,-9.1,69.28,5E-06,4.7E-06,0.7
4672,17:37.6,183078475,2.66,-9.87,68.76,-11.16,22.5556032,88.308277,1500,1500,987,,3423999,2.66,-9.87,68.76,5E-06,4.4E-06,0.9
4709,17:37.7,183116748,2.74,-10.31,68.43,-11.16,22.5556032,88.308277,1500,1500,987,,3462272,2.74,-10.31,68.43,5E-06,4.4E-06,0.9
4751,17:37.7,183158943,2.62,-10.79,68.25,-11.16,22.5556032,88.308277,1500,1500,987,,3504467,2.62,-10.79,68.25,5E-06,4.4E-06,0.9
4789,17:37.7,183196711,2.36,-11.48,68.27,-11.16,22.5556032,88.308277,1500,1500,987,,3542235,2.36,-11.48,68.27,5E-06,4.4E-06,0.9
4829,17:37.8,183236706,2.03,-12.15,68.36,-11.16,22.5556032,88.308277,1500,1500,987,,3582230,2.03,-12.15,68.36,5E-06,4.4E-06,0.9
4872,17:37.8,183278298,1.97,-12.33,68.39,-11.24,22.5556034,88.3082772,1500,1500,987,,3623822,1.97,-12.33,68.39,5.2E-06,4.6E-06,0.82
4909,17:37.9,183317688,2.16,-12.1,68.3,-11.24,22.5556034,88.3082772,1500,1500,987,,3663212,2.16,-12.1,68.3,5.2E-06,4.6E-06,0.82
4951,17:37.9,183358903,2.08,-11.47,68.17,-11.24,22.5556034,88.3082772,1500,1500,987,,3704427,2.08,-11.47,68.17,5.2E-06,4.6E-06,0.82
4989,17:37.9,183396795,1.75,-10.62,68.01,-11.24,22.5556034,88.3082772,1500,1500,987,,3742319,1.75,-10.62,68.01,5.2E-06,4.6E-06,0.82
5026,17:38.0,183436768,1.57,-9.72,67.78,-11.24,22.5556034,88.3082772,1500,1500,987,,3782292,1.57,-9.72,67.78,5.2E-06,4.6E-06,0.82
5069,17:38.0,183478079,1.78,-9.4,67.35,-11.77,22.5556036,88.3082774,1500,1500,987,,3823603,1.78,-9.4,67.35,5.4E-06,4.8E-06,0.29
5106,17:38.1,183517261,2.25,-9.92,66.83,-11.77,22.5556036,88.3082774,1500,1500,987,,3862785,2.25,-9.92,66.83,5.4E-06,4.8E-06,0.29
5149,17:38.1,183559008,2.3,-11.22,66.38,-11.77,22.5556036,88.3082774,1500,1500,987,,3904532,2.3,-11.22,66.38,5.4E-06,4.8E-06,0.29
5187,17:38.1,183596824,2.78,-13.41,65.96,-11.77,22.5556036,88.3082774,1500,1500,987,,3942348,2.78,-13.41,65.96,5.4E-06,4.8E-06,0.29
5224,17:38.2,183636437,3.73,-16.33,65.46,-11.77,22.5556036,88.3082774,1500,1500,987,,3981961,3.73,-16.33,65.46,5.4E-06,4.8E-06,0.29
5269,17:38.2,183678460,4.31,-18.76,64.74,-11.62,22.5556037,88.3082761,1500,1500,987,,4023984,4.31,-18.76,64.74,5.5E-06,3.5E-06,0.44
5306,17:38.3,183718072,4.66,-19.82,63.94,-11.62,22.5556037,88.3082761,1500,1500,987,,4063596,4.66,-19.82,63.94,5.5E-06,3.5E-06,0.44
5349,17:38.3,183759035,4.83,-20.08,63.53,-11.62,22.5556037,88.3082761,1500,1500,987,,4104559,4.83,-20.08,63.53,5.5E-06,3.5E-06,0.44
5389,17:38.3,183797059,5.18,-20.02,63.41,-11.62,22.5556037,88.3082761,1500,1500,987,,4142583,5.18,-20.02,63.41,5.5E-06,3.5E-06,0.44
5426,17:38.4,183836977,5.71,-19.51,63.43,-11.62,22.5556037,88.3082761,1500,1500,987,,4182501,5.71,-19.51,63.43,5.5E-06,3.5E-06,0.44
5469,17:38.4,183878464,6.3,-18.46,63.73,-11.94,22.5556039,88.3082773,1500,1500,987,,4223988,6.3,-18.46,63.73,5.7E-06,4.7E-06,0.12
5506,17:38.5,183917529,6.76,-17.4,64.27,-11.94,22.5556039,88.3082773,1500,1500,987,,4263053,6.76,-17.4,64.27,5.7E-06,4.7E-06,0.12
5547,17:38.5,183959000,7.16,-16.25,64.9,-11.94,22.5556039,88.3082773,1500,1500,987,,4304524,7.16,-16.25,64.9,5.7E-06,4.7E-06,0.12
5586,17:38.5,183996501,7.63,-14.76,65.47,-11.94,22.5556039,88.3082773,1500,1500,987,,4342025,7.63,-14.76,65.47,5.7E-06,4.7E-06,0.12
5622,17:38.6,184036797,7.83,-13.3,65.95,-11.94,22.5556039,88.3082773,1500,1500,987,,4382321,7.83,-13.3,65.95,5.7E-06,4.7E-06,0.12
5666,17:38.6,184078061,7.75,-11.87,66.47,-11.99,22.5556034,88.3082783,1500,1500,987,,4423585,7.75,-11.87,66.47,5.2E-06,5.7E-06,0.07
5706,17:38.7,184117255,7.5,-10.34,67.06,-11.99,22.5556034,88.3082783,1500,1500,987,,4462779,7.5,-10.34,67.06,5.2E-06,5.7E-06,0.07
5748,17:38.7,184158941,7.3,-8.84,67.62,-11.99,22.5556034,88.3082783,1500,1500,987,,4504465,7.3,-8.84,67.62,5.2E-06,5.7E-06,0.07
5787,17:38.7,184196693,7.21,-7.82,68.04,-11.99,22.5556034,88.3082783,1500,1500,987,,4542217,7.21,-7.82,68.04,5.2E-06,5.7E-06,0.07
5823,17:38.8,184236418,6.83,-7,68.44,-11.99,22.5556034,88.3082783,1500,1500,987,,4581942,6.83,-7,68.44,5.2E-06,5.7E-06,0.07
5869,17:38.8,184278393,6.21,-6.42,68.87,-11.92,22.5556025,88.3082794,1500,1500,987,,4623917,6.21,-6.42,68.87,4.3E-06,6.8E-06,0.14
5906,17:38.9,184316741,5.81,-6.04,69.26,-11.92,22.5556025,88.3082794,1500,1500,987,,4662265,5.81,-6.04,69.26,4.3E-06,6.8E-06,0.14
5949,17:38.9,184358935,5.53,-5.6,69.57,-11.92,22.5556025,88.3082794,1500,1500,987,,4704459,5.53,-5.6,69.57,4.3E-06,6.8E-06,0.14
5987,17:38.9,184396635,5.13,-5.1,69.83,-11.92,22.5556025,88.3082794,1500,1500,987,,4742159,5.13,-5.1,69.83,4.3E-06,6.8E-06,0.14
6023,17:39.0,184436708,4.66,-4.67,70.06,-11.92,22.5556025,88.3082794,1500,1500,987,,4782232,4.66,-4.67,70.06,4.3E-06,6.8E-06,0.14
6067,17:39.0,184478460,4.32,-4.19,70.24,-12.22,22.5556019,88.3082819,1500,1500,1028,,4823984,4.32,-4.19,70.24,3.7E-06,9.3E-06,-0.16
6104,17:39.1,184516877,4.09,-3.57,70.33,-12.22,22.5556019,88.3082819,1500,1500,1045,,4862401,4.09,-3.57,70.33,3.7E-06,9.3E-06,-0.16
6147,17:39.1,184558999,3.85,-2.89,70.29,-12.22,22.5556019,88.3082819,1500,1500,1088,,4904523,3.85,-2.89,70.29,3.7E-06,9.3E-06,-0.16
6184,17:39.1,184596496,3.6,-2.35,70.14,-12.22,22.5556019,88.3082819,1500,1500,1096,,4942020,3.6,-2.35,70.14,3.7E-06,9.3E-06,-0.16
6220,17:39.2,184636660,3.28,-2.08,69.9,-12.22,22.5556019,88.3082819,1500,1500,1132,,4982184,3.28,-2.08,69.9,3.7E-06,9.3E-06,-0.16
6264,17:39.2,184678027,3.06,-2.12,69.62,-12.22,22.5556019,88.3082819,1500,1500,1171,,5023551,3.06,-2.12,69.62,3.7E-06,9.3E-06,-0.16
6302,17:39.3,184718035,2.79,-2.55,69.34,-12.4,22.555602,88.3082839,1500,1500,1189,,5063559,2.79,-2.55,69.34,3.8E-06,1.13E-05,-0.34
6344,17:39.3,184758965,2.55,-3.06,69.13,-12.4,22.555602,88.3082839,1500,1500,1209,,5104489,2.55,-3.06,69.13,3.8E-06,1.13E-05,-0.34
6385,17:39.3,184797419,2.43,-3.85,68.96,-12.4,22.555602,88.3082839,1500,1500,1231,,5142943,2.43,-3.85,68.96,3.8E-06,1.13E-05,-0.34
6422,17:39.4,184836803,2.58,-5.16,68.7,-12.4,22.555602,88.3082839,1500,1500,1258,,5182327,2.58,-5.16,68.7,3.8E-06,1.13E-05,-0.34
6466,17:39.4,184878791,2.94,-6.73,68.36,-12.27,22.5556013,88.3082858,1500,1500,1272,,5224315,2.94,-6.73,68.36,3.1E-06,1.32E-05,-0.21
6503,17:39.5,184917615,3.81,-8.05,67.78,-12.27,22.5556013,88.3082858,1500,1500,1291,,5263139,3.81,-8.05,67.78,3.1E-06,1.32E-05,-0.21
6545,17:39.5,184958877,4.67,-7.55,67.26,-12.27,22.5556013,88.3082858,1500,1500,1299,,5304401,4.67,-7.55,67.26,3.1E-06,1.32E-05,-0.21
6580,17:39.5,184996724,3.91,-5.54,67,-12.27,22.5556013,88.3082858,1500,1500,1302,,5342248,3.91,-5.54,67,3.1E-06,1.32E-05,-0.21
6614,17:39.6,185036758,2.6,-4.21,67.15,-12.27,22.5556013,88.3082858,1500,1500,1309,,5382282,2.6,-4.21,67.15,3.1E-06,1.32E-05,-0.21
6655,17:39.6,185078404,2.21,-2.45,67.64,-12.21,22.5556009,88.3082876,1500,1500,1322,,5423928,2.21,-2.45,67.64,2.7E-06,1.5E-05,-0.15
6689,17:39.7,185116906,1.97,-0.12,68.11,-12.21,22.5556009,88.3082876,1500,1500,1331,,5462430,1.97,-0.12,68.11,2.7E-06,1.5E-05,-0.15
6729,17:39.7,185158888,1.55,1.26,68.08,-12.21,22.5556009,88.3082876,1500,1500,1331,,5504412,1.55,1.26,68.08,2.7E-06,1.5E-05,-0.15
6763,17:39.7,185196221,0.55,1.26,67.96,-12.21,22.5556009,88.3082876,1500,1500,1341,,5541745,0.55,1.26,67.96,2.7E-06,1.5E-05,-0.15
6798,17:39.8,185236791,0.75,1.26,67.5,-12.21,22.5556009,88.3082876,1500,1500,1343,,5582315,0.75,1.26,67.5,2.7E-06,1.5E-05,-0.15
6839,17:39.8,185278014,1.43,0.27,66.25,-12.51,22.5556009,88.3082896,1500,1500,1344,,5623538,1.43,0.27,66.25,2.7E-06,1.7E-05,-0.45
6875,17:39.9,185317784,1.77,-0.73,64.59,-12.51,22.5556009,88.3082896,1500,1500,1344,,5663308,1.77,-0.73,64.59,2.7E-06,1.7E-05,-0.45
6914,17:39.9,185358942,2.27,0,62.74,-12.51,22.5556009,88.3082896,1500,1500,1341,,5704466,2.27,0,62.74,2.7E-06,1.7E-05,-0.45
6948,17:39.9,185396675,2.29,2.8,61.6,-12.51,22.5556009,88.3082896,1500,1500,1340,,5742199,2.29,2.8,61.6,2.7E-06,1.7E-05,-0.45
6982,17:40.0,185436371,1.72,4.11,61.08,-12.51,22.5556009,88.3082896,1500,1500,1341,,5781895,1.72,4.11,61.08,2.7E-06,1.7E-05,-0.45
7023,17:40.0,185478222,1.01,5.92,61.04,-12.51,22.5556009,88.3082896,1500,1500,1352,,5823746,1.01,5.92,61.04,2.7E-06,1.7E-05,-0.45
7057,17:40.1,185517510,0.17,7.87,61.41,-12.55,22.5556008,88.3082916,1500,1500,1360,,5863034,0.17,7.87,61.41,2.6E-06,1.9E-05,-0.49
7097,17:40.1,185559015,-0.33,7.54,61.67,-12.55,22.5556008,88.3082916,1500,1500,1372,,5904539,-0.33,7.54,61.67,2.6E-06,1.9E-05,-0.49
7132,17:40.1,185596673,-1,5.9,61.57,-12.55,22.5556008,88.3082916,1500,1500,1381,,5942197,-1,5.9,61.57,2.6E-06,1.9E-05,-0.49
7166,17:40.2,185636629,-0.96,4.56,60.9,-12.55,22.5556008,88.3082916,1500,1500,1391,,5982153,-0.96,4.56,60.9,2.6E-06,1.9E-05,-0.49
7207,17:40.2,185678823,-0.83,2.15,59.67,-12.55,22.5556008,88.3082916,1500,1500,1408,,6024347,-0.83,2.15,59.67,2.6E-06,1.9E-05,-0.49
7242,17:40.3,185717967,0.08,0.75,57.81,-13.01,22.5556013,88.3082942,1500,1500,1419,,6063491,0.08,0.75,57.81,3.1E-06,2.16E-05,-0.95
7282,17:40.3,185758964,0.85,2.44,56.03,-13.01,22.5556013,88.3082942,1500,1500,1428,,6104488,0.85,2.44,56.03,3.1E-06,2.16E-05,-0.95
7317,17:40.3,185796942,0.38,3.8,54.97,-13.01,22.5556013,88.3082942,1500,1500,1436,,6142466,0.38,3.8,54.97,3.1E-06,2.16E-05,-0.95
7355,17:40.4,185836924,-0.42,4.74,54.64,-13.01,22.5556013,88.3082942,1500,1500,1439,,6182448,-0.42,4.74,54.64,3.1E-06,2.16E-05,-0.95
7396,17:40.4,185877954,-1.18,6.2,55.13,-13.01,22.5556013,88.3082942,1500,1500,1450,,6223478,-1.18,6.2,55.13,3.1E-06,2.16E-05,-0.95
7430,17:40.5,185917677,-1.74,6.76,55.96,-13.53,22.555602,88.3082969,1500,1500,1482,,6263201,-1.74,6.76,55.96,3.8E-06,2.43E-05,-1.47
7468,17:40.5,185958852,-1.5,6.17,56.52,-13.53,22.555602,88.3082969,1500,1500,1488,,6304376,-1.5,6.17,56.52,3.8E-06,2.43E-05,-1.47
7503,17:40.5,185996634,-0.62,5.17,56.21,-13.53,22.555602,88.3082969,1500,1500,1467,,6342158,-0.62,5.17,56.21,3.8E-06,2.43E-05,-1.47
7537,17:40.6,186036409,0.42,3.11,55.34,-13.53,22.555602,88.3082969,1500,1500,1466,,6381933,0.42,3.11,55.34,3.8E-06,2.43E-05,-1.47
7578,17:40.6,186078023,2.04,2.33,53.53,-13.53,22.555602,88.3082969,1500,1500,1466,,6423547,2.04,2.33,53.53,3.8E-06,2.43E-05,-1.47
7612,17:40.7,186117782,2.16,4.75,52.06,-13.08,22.5556027,88.3082981,1500,1500,1466,,6463306,2.16,4.75,52.06,4.5E-06,2.55E-05,-1.02
7651,17:40.7,186158885,1.74,6.38,51.2,-13.08,22.5556027,88.3082981,1500,1500,1467,,6504409,1.74,6.38,51.2,4.5E-06,2.55E-05,-1.02
7686,17:40.7,186196641,1.18,8.46,51.03,-13.08,22.5556027,88.3082981,1500,1500,1469,,6542165,1.18,8.46,51.03,4.5E-06,2.55E-05,-1.02
7721,17:40.8,186236782,0.64,10.67,51.16,-13.08,22.5556027,88.3082981,1500,1500,1469,,6582306,0.64,10.67,51.16,4.5E-06,2.55E-05,-1.02
7762,17:40.8,186277992,0.54,10.69,51.09,-13.08,22.5556027,88.3082981,1500,1500,1467,,6623516,0.54,10.69,51.09,4.5E-06,2.55E-05,-1.02
7796,17:40.9,186317745,0.35,9.11,50.51,-12.91,22.555603,88.3083004,1500,1500,1469,,6663269,0.35,9.11,50.51,4.8E-06,2.78E-05,-0.85
7836,17:40.9,186359028,0.94,7.36,49.36,-12.91,22.555603,88.3083004,1500,1500,1469,,6704552,0.94,7.36,49.36,4.8E-06,2.78E-05,-0.85
7871,17:40.9,186396308,2.79,5.75,47.11,-12.91,22.555603,88.3083004,1500,1500,1470,,6741832,2.79,5.75,47.11,4.8E-06,2.78E-05,-0.85
7905,17:41.0,186436675,3.79,6.82,44.82,-12.91,22.555603,88.3083004,1500,1500,1470,,6782199,3.79,6.82,44.82,4.8E-06,2.78E-05,-0.85
7946,17:41.0,186478492,1.28,7.33,42.97,-12.3,22.5556044,88.3083026,1500,1500,1469,,6824016,1.28,7.33,42.97,6.2E-06,3E-05,-0.24
7980,17:41.1,186517275,0.07,8.04,42.05,-12.3,22.5556044,88.3083026,1500,1500,1498,,6862799,0.07,8.04,42.05,6.2E-06,3E-05,-0.24
8019,17:41.1,186557793,-0.84,9.55,41.73,-12.3,22.5556044,88.3083026,1500,1500,1514,,6903317,-0.84,9.55,41.73,6.2E-06,3E-05,-0.24
8054,17:41.1,186596589,-0.99,9.84,41.37,-12.3,22.5556044,88.3083026,1500,1500,1504,,6942113,-0.99,9.84,41.37,6.2E-06,3E-05,-0.24
8088,17:41.2,186636480,-1.83,8.2,41.26,-12.3,22.5556044,88.3083026,1500,1500,1529,,6982004,-1.83,8.2,41.26,6.2E-06,3E-05,-0.24
8128,17:41.2,186678871,-1.36,5.85,40.71,-11.02,22.5556083,88.3083055,1500,1500,1543,,7024395,-1.36,5.85,40.71,1.01E-05,3.29E-05,1.04
8164,17:41.3,186717833,0.8,3.95,39.64,-11.02,22.5556083,88.3083055,1500,1500,1543,,7063357,0.8,3.95,39.64,1.01E-05,3.29E-05,1.04
8202,17:41.3,186757865,2.04,5.12,38.49,-11.02,22.5556083,88.3083055,1500,1500,1534,,7103389,2.04,5.12,38.49,1.01E-05,3.29E-05,1.04
8237,17:41.3,186797322,0.4,5.68,37.61,-11.02,22.5556083,88.3083055,1500,1500,1533,,7142846,0.4,5.68,37.61,1.01E-05,3.29E-05,1.04
8273,17:41.4,186836934,-1.48,4.6,37.29,-11.02,22.5556083,88.3083055,1500,1500,1540,,7182458,-1.48,4.6,37.29,1.01E-05,3.29E-05,1.04
8316,17:41.4,186878982,-2.3,5.43,37.47,-10.68,22.5556125,88.3083113,1500,1500,1564,,7224506,-2.3,5.43,37.47,1.43E-05,3.87E-05,1.38
8350,17:41.5,186916689,-2.87,6.16,37.63,-10.68,22.5556125,88.3083113,1500,1500,1574,,7262213,-2.87,6.16,37.63,1.43E-05,3.87E-05,1.38
8388,17:41.5,186957664,-3.46,5.02,38,-10.68,22.5556125,88.3083113,1500,1500,1573,,7303188,-3.46,5.02,38,1.43E-05,3.87E-05,1.38
8423,17:41.5,186996077,-2.66,2.78,38.03,-10.68,22.5556125,88.3083113,1500,1500,1571,,7341601,-2.66,2.78,38.03,1.43E-05,3.87E-05,1.38
8457,17:41.6,187036710,-0.2,1.17,37.36,-10.68,22.5556125,88.3083113,1500,1500,1571,,7382234,-0.2,1.17,37.36,1.43E-05,3.87E-05,1.38
8498,17:41.6,187078620,0.83,2.56,36.78,-10.7,22.5556175,88.3083177,1500,1500,1571,,7424144,0.83,2.56,36.78,1.93E-05,4.51E-05,1.36
8532,17:41.7,187117265,-0.71,2.38,36.34,-10.7,22.5556175,88.3083177,1500,1500,1580,,7462789,-0.71,2.38,36.34,1.93E-05,4.51E-05,1.36
8570,17:41.7,187157467,-2.2,0.85,36.51,-10.7,22.5556175,88.3083177,1500,1500,1582,,7502991,-2.2,0.85,36.51,1.93E-05,4.51E-05,1.36
8605,17:41.7,187196665,-2.93,1.73,37.07,-10.7,22.5556175,88.3083177,1500,1500,1571,,7542189,-2.93,1.73,37.07,1.93E-05,4.51E-05,1.36
8640,17:41.8,187236748,-3.64,2.06,37.61,-10.7,22.5556175,88.3083177,1500,1500,1568,,7582272,-3.64,2.06,37.61,1.93E-05,4.51E-05,1.36
8681,17:41.8,187278510,-4.31,0.79,38.35,-10.97,22.5556225,88.3083248,1500,1500,1565,,7624034,-4.31,0.79,38.35,2.43E-05,5.22E-05,1.09
8716,17:41.9,187317673,-3.36,-1.17,38.71,-10.97,22.5556225,88.3083248,1500,1500,1565,,7663197,-3.36,-1.17,38.71,2.43E-05,5.22E-05,1.09
8754,17:41.9,187357768,-0.73,-2.06,38.29,-10.97,22.5556225,88.3083248,1500,1500,1574,,7703292,-0.73,-2.06,38.29,2.43E-05,5.22E-05,1.09
8791,17:41.9,187396531,0.47,-0.31,38.08,-10.97,22.5556225,88.3083248,1500,1500,1583,,7742055,0.47,-0.31,38.08,2.43E-05,5.22E-05,1.09
8825,17:42.0,187436865,-0.16,-1,37.84,-10.97,22.5556225,88.3083248,1500,1500,1592,,7782389,-0.16,-1,37.84,2.43E-05,5.22E-05,1.09
8865,17:42.0,187478504,-1.16,-2.13,38.14,-10.76,22.5556282,88.3083306,1500,1500,1593,,7824028,-1.16,-2.13,38.14,3E-05,5.8E-05,1.3
8900,17:42.1,187516582,-2.17,-0.87,38.7,-10.76,22.5556282,88.3083306,1500,1500,1602,,7862106,-2.17,-0.87,38.7,3E-05,5.8E-05,1.3
8939,17:42.1,187557923,-3.01,-0.52,39.27,-10.76,22.5556282,88.3083306,1489,1500,1612,,7903447,-3.01,-0.52,39.27,3E-05,5.8E-05,1.3
8974,17:42.1,187596155,-3.68,-1.82,39.93,-10.76,22.5556282,88.3083306,1492,1500,1621,,7941679,-3.68,-1.82,39.93,3E-05,5.8E-05,1.3
9008,17:42.2,187636738,-2.65,-3.55,40.13,-10.76,22.5556282,88.3083306,1500,1500,1630,,7982262,-2.65,-3.55,40.13,3E-05,5.8E-05,1.3
9048,17:42.2,187679185,-0.04,-3.54,39.54,-10.57,22.5556348,88.3083361,1447,1532,1638,,8024709,-0.04,-3.54,39.54,3.66E-05,6.35E-05,1.49
9083,17:42.3,187717565,1.91,-1.61,39.17,-10.57,22.5556348,88.3083361,1445,1543,1652,,8063089,1.91,-1.61,39.17,3.66E-05,6.35E-05,1.49
9122,17:42.3,187757746,1.06,-2.64,38.87,-10.57,22.5556348,88.3083361,1436,1583,1678,,8103270,1.06,-2.64,38.87,3.66E-05,6.35E-05,1.49
9157,17:42.3,187797293,-0.5,-2.61,39.05,-10.57,22.5556348,88.3083361,1428,1598,1696,,8142817,-0.5,-2.61,39.05,3.66E-05,6.35E-05,1.49
9191,17:42.4,187836919,-1.69,-0.93,39.42,-10.57,22.5556348,88.3083361,1426,1592,1699,,8182443,-1.69,-0.93,39.42,3.66E-05,6.35E-05,1.49
9233,17:42.4,187878903,-2.75,-0.6,39.91,-10.68,22.5556414,88.3083426,1438,1584,1706,,8224427,-2.75,-0.6,39.91,4.32E-05,7E-05,1.38
9269,17:42.5,187917055,-2.72,-1.74,40.16,-10.68,22.5556414,88.3083426,1410,1608,1706,,8262579,-2.72,-1.74,40.16,4.32E-05,7E-05,1.38
9308,17:42.5,187957449,-0.26,-2.58,39.69,-10.68,22.5556414,88.3083426,1372,1638,1706,,8302973,-0.26,-2.58,39.69,4.32E-05,7E-05,1.38
9343,17:42.5,187996668,2.14,-0.2,38.97,-10.68,22.5556414,88.3083426,1417,1631,1722,,8342192,2.14,-0.2,38.97,4.32E-05,7E-05,1.38
9377,17:42.6,188036744,1.64,0.69,38.41,-10.68,22.5556414,88.3083426,1436,1627,1731,,8382268,1.64,0.69,38.41,4.32E-05,7E-05,1.38
9417,17:42.6,188078644,-0.48,-0.06,38.44,-11.13,22.5556464,88.3083492,1422,1637,1734,,8424168,-0.48,-0.06,38.44,4.82E-05,7.66E-05,0.93
9451,17:42.7,188116681,-1.33,1.29,38.9,-11.13,22.5556464,88.3083492,1379,1660,1744,,8462205,-1.33,1.29,38.9,4.82E-05,7.66E-05,0.93
9490,17:42.7,188157673,-2.28,2.1,39.45,-11.13,22.5556464,88.3083492,1408,1653,1747,,8503197,-2.28,2.1,39.45,4.82E-05,7.66E-05,0.93
9525,17:42.7,188196003,-2.89,1.49,39.81,-11.13,22.5556464,88.3083492,1374,1652,1750,,8541527,-2.89,1.49,39.81,4.82E-05,7.66E-05,0.93
9560,17:42.8,188236631,-0.98,0.71,39.51,-11.13,22.5556464,88.3083492,1347,1652,1751,,8582155,-0.98,0.71,39.51,4.82E-05,7.66E-05,0.93
9601,17:42.8,188278662,1.63,3.07,38.92,-11.52,22.5556516,88.3083564,1344,1649,1753,,8624186,1.63,3.07,38.92,5.34E-05,8.38E-05,0.54
9635,17:42.9,188317672,1.59,4.24,38.42,-11.52,22.5556516,88.3083564,1341,1646,1753,,8663196,1.59,4.24,38.42,5.34E-05,8.38E-05,0.54
9674,17:42.9,188357513,-0.18,3.17,38.46,-11.52,22.5556516,88.3083564,1325,1624,1753,,8703037,-0.18,3.17,38.46,5.34E-05,8.38E-05,0.54
9709,17:42.9,188396719,-1.12,4.28,38.76,-11.52,22.5556516,88.3083564,1321,1624,1753,,8742243,-1.12,4.28,38.76,5.34E-05,8.38E-05,0.54
9745,17:43.0,188436803,-2.33,4.81,39.1,-11.52,22.5556516,88.3083564,1313,1638,1754,,8782327,-2.33,4.81,39.1,5.34E-05,8.38E-05,0.54
9785,17:43.0,188478397,-3.08,3.91,39.45,-10.93,22.5556586,88.3083608,1291,1640,1754,,8823921,-3.08,3.91,39.45,6.04E-05,8.82E-05,1.13
9819,17:43.1,188517246,-1.52,2.71,39.05,-10.93,22.5556586,88.3083608,1296,1642,1756,,8862770,-1.52,2.71,39.05,6.04E-05,8.82E-05,1.13
9859,17:43.1,188557773,0.71,4.44,38.08,-10.93,22.5556586,88.3083608,1309,1643,1757,,8903297,0.71,4.44,38.08,6.04E-05,8.82E-05,1.13
9893,17:43.1,188596485,1.86,6.03,37.48,-10.93,22.5556586,88.3083608,1309,1650,1766,,8942009,1.86,6.03,37.48,6.04E-05,8.82E-05,1.13
9928,17:43.2,188636797,0.15,4.94,37.37,-10.93,22.5556586,88.3083608,1312,1636,1769,,8982321,0.15,4.94,37.37,6.04E-05,8.82E-05,1.13
9968,17:43.2,188678915,-0.95,5.69,37.53,-10.61,22.5556651,88.3083657,1312,1621,1766,,9024439,-0.95,5.69,37.53,6.69E-05,9.31E-05,1.45
10002,17:43.3,188717068,-2.12,6.23,37.69,-10.61,22.5556651,88.3083657,1304,1611,1760,,9062592,-2.12,6.23,37.69,6.69E-05,9.31E-05,1.45
10042,17:43.3,188758047,-3.06,5.19,37.94,-10.61,22.5556651,88.3083657,1302,1596,1751,,9103571,-3.06,5.19,37.94,6.69E-05,9.31E-05,1.45
10076,17:43.3,188796815,-1.91,3.46,37.56,-10.61,22.5556651,88.3083657,1302,1593,1742,,9142339,-1.91,3.46,37.56,6.69E-05,9.31E-05,1.45
10111,17:43.4,188836964,0.31,4,36.41,-10.61,22.5556651,88.3083657,1277,1593,1744,,9182488,0.31,4,36.41,6.69E-05,9.31E-05,1.45
10153,17:43.4,188878962,1.95,5.75,35.71,-10.22,22.5556723,88.3083722,1272,1582,1753,,9224486,1.95,5.75,35.71,7.41E-05,9.96E-05,1.84
10187,17:43.5,188917056,0.35,4.52,35.4,-10.22,22.5556723,88.3083722,1271,1574,1753,,9262580,0.35,4.52,35.4,7.41E-05,9.96E-05,1.84
10228,17:43.5,188957471,-1.09,4.41,35.45,-10.22,22.5556723,88.3083722,1278,1561,1756,,9302995,-1.09,4.41,35.45,7.41E-05,9.96E-05,1.84
10262,17:43.5,188996849,-2.03,4.38,35.52,-10.22,22.5556723,88.3083722,1277,1561,1764,,9342373,-2.03,4.38,35.52,7.41E-05,9.96E-05,1.84
10296,17:43.6,189036651,-2.89,2.77,35.63,-10.22,22.5556723,88.3083722,1271,1560,1775,,9382175,-2.89,2.77,35.63,7.41E-05,9.96E-05,1.84
10337,17:43.6,189078396,-2.07,0.5,35.2,-10.63,22.5556789,88.3083806,1268,1560,1778,,9423920,-2.07,0.5,35.2,8.07E-05,0.000108,1.43
10371,17:43.7,189117348,0.33,0.05,33.83,-10.63,22.5556789,88.3083806,1242,1561,1781,,9462872,0.33,0.05,33.83,8.07E-05,0.000108,1.43
10412,17:43.7,189157431,1.81,1.99,33.01,-10.63,22.5556789,88.3083806,1239,1558,1795,,9502955,1.81,1.99,33.01,8.07E-05,0.000108,1.43
10446,17:43.7,189196683,0.38,1.26,32.51,-10.63,22.5556789,88.3083806,1233,1558,1804,,9542207,0.38,1.26,32.51,8.07E-05,0.000108,1.43
10480,17:43.8,189236828,-1.07,1.04,32.44,-10.63,22.5556789,88.3083806,1231,1558,1807,,9582352,-1.07,1.04,32.44,8.07E-05,0.000108,1.43
10522,17:43.8,189278611,-1.96,1.47,32.35,-10.64,22.5556858,88.3083874,1231,1558,1808,,9624135,-1.96,1.47,32.35,8.76E-05,0.0001148,1.42
10557,17:43.9,189317405,-2.79,0.19,32.36,-10.64,22.5556858,88.3083874,1231,1558,1808,,9662929,-2.79,0.19,32.36,8.76E-05,0.0001148,1.42
10596,17:43.9,189357693,-2.22,-1.78,31.9,-10.64,22.5556858,88.3083874,1227,1560,1808,,9703217,-2.22,-1.78,31.9,8.76E-05,0.0001148,1.42
10630,17:43.9,189396060,0.2,-2.4,30.44,-10.64,22.5556858,88.3083874,1222,1561,1810,,9741584,0.2,-2.4,30.44,8.76E-05,0.0001148,1.42
10664,17:44.0,189436837,1.15,-0.17,29.46,-10.64,22.5556858,88.3083874,1221,1562,1812,,9782361,1.15,-0.17,29.46,8.76E-05,0.0001148,1.42
10707,17:44.0,189478522,-0.33,-0.54,28.94,-11,22.5556928,88.3083947,1193,1570,1812,,9824046,-0.33,-0.54,28.94,9.46E-05,0.0001221,1.06
10741,17:44.1,189516614,-1.78,-0.85,28.96,-11,22.5556928,88.3083947,1192,1571,1812,,9862138,-1.78,-0.85,28.96,9.46E-05,0.0001221,1.06
10781,17:44.1,189557818,-2.64,0.07,28.92,-11,22.5556928,88.3083947,1189,1574,1813,,9903342,-2.64,0.07,28.92,9.46E-05,0.0001221,1.06
10815,17:44.1,189596676,-3.55,-0.67,29,-11,22.5556928,88.3083947,1190,1574,1812,,9942200,-3.55,-0.67,29,9.46E-05,0.0001221,1.06
10849,17:44.2,189636741,-2.97,-2.36,28.69,-11,22.5556928,88.3083947,1222,1565,1812,,9982265,-2.97,-2.36,28.69,9.46E-05,0.0001221,1.06
10890,17:44.2,189678723,-0.75,-3.08,27.51,-10.78,22.5557,88.3084009,1236,1560,1812,,10024247,-0.75,-3.08,27.51,0.0001018,0.0001283,1.28
10924,17:44.3,189717757,-0.07,-0.74,26.54,-10.78,22.5557,88.3084009,1239,1565,1813,,10063281,-0.07,-0.74,26.54,0.0001018,0.0001283,1.28
10963,17:44.3,189757883,-1.25,-0.76,26.13,-10.78,22.5557,88.3084009,1242,1568,1813,,10103407,-1.25,-0.76,26.13,0.0001018,0.0001283,1.28
10998,17:44.3,189796937,-3.02,-1.39,26.31,-10.78,22.5557,88.3084009,1239,1576,1823,,10142461,-3.02,-1.39,26.31,0.0001018,0.0001283,1.28
11032,17:44.4,189836745,-4.05,-0.3,26.53,-10.78,22.5557,88.3084009,1236,1583,1826,,10182269,-4.05,-0.3,26.53,0.0001018,0.0001283,1.28
11073,17:44.4,189878474,-4.78,-0.43,26.81,-10.91,22.5557073,88.3084083,1231,1586,1833,,10223998,-4.78,-0.43,26.81,0.0001091,0.0001357,1.15
11109,17:44.5,189916877,-4.5,-1.81,26.85,-10.91,22.5557073,88.3084083,1227,1587,1833,,10262401,-4.5,-1.81,26.85,0.0001091,0.0001357,1.15
11147,17:44.5,189957513,-2.17,-2.75,26.08,-10.91,22.5557073,88.3084083,1211,1589,1835,,10303037,-2.17,-2.75,26.08,0.0001091,0.0001357,1.15
11184,17:44.5,189996056,-0.97,-0.37,25.17,-10.91,22.5557073,88.3084083,1208,1592,1836,,10341580,-0.97,-0.37,25.17,0.0001091,0.0001357,1.15
11218,17:44.6,190036655,-1.92,0.35,24.74,-10.91,22.5557073,88.3084083,1204,1592,1836,,10382179,-1.92,0.35,24.74,0.0001091,0.0001357,1.15
11259,17:44.6,190078643,-3.81,-0.18,24.93,-11.23,22.5557155,88.308415,1202,1593,1838,,10424167,-3.81,-0.18,24.93,0.0001173,0.0001424,0.83
11293,17:44.7,190117078,-4.99,1.01,25.13,-11.23,22.5557155,88.308415,1198,1592,1839,,10462602,-4.99,1.01,25.13,0.0001173,0.0001424,0.83
11331,17:44.7,190157423,-5.81,1.32,25.39,-11.23,22.5557155,88.308415,1196,1589,1839,,10502947,-5.81,1.32,25.39,0.0001173,0.0001424,0.83
11366,17:44.7,190196748,-5.93,0.14,25.54,-11.23,22.5557155,88.308415,1193,1587,1839,,10542272,-5.93,0.14,25.54,0.0001173,0.0001424,0.83
11400,17:44.8,190236671,-3.99,-0.97,24.99,-11.23,22.5557155,88.308415,1190,1583,1839,,10582195,-3.99,-0.97,24.99,0.0001173,0.0001424,0.83
11442,17:44.8,190278226,-1.92,1.21,23.97,-11.23,22.5557155,88.308415,1189,1578,1839,,10623750,-1.92,1.21,23.97,0.0001173,0.0001424,0.83
11477,17:44.9,190318042,-2.48,2.18,23.5,-11.73,22.5557235,88.3084208,1186,1578,1839,,10663566,-2.48,2.18,23.5,0.0001253,0.0001482,0.33
11515,17:44.9,190357523,-4.29,1.18,23.68,-11.73,22.5557235,88.3084208,1183,1578,1841,,10703047,-4.29,1.18,23.68,0.0001253,0.0001482,0.33
11550,17:44.9,190396456,-5.45,2.15,23.84,-11.73,22.5557235,88.3084208,1182,1576,1842,,10741980,-5.45,2.15,23.84,0.0001253,0.0001482,0.33
11584,17:45.0,190436509,-6.6,2.42,24.02,-11.73,22.5557235,88.3084208,1182,1574,1844,,10782033,-6.6,2.42,24.02,0.0001253,0.0001482,0.33
11625,17:45.0,190478031,-7.11,1.13,24.22,-11.73,22.5557235,88.3084208,1182,1571,1845,,10823555,-7.11,1.13,24.22,0.0001253,0.0001482,0.33
11660,17:45.1,190517081,-5.3,-0.37,23.66,-12.05,22.5557315,88.3084268,1178,1570,1846,,10862605,-5.3,-0.37,23.66,0.0001333,0.0001542,0.01
11701,17:45.1,190557899,-3.22,1.25,22.4,-12.05,22.5557315,88.3084268,1176,1568,1846,,10903423,-3.22,1.25,22.4,0.0001333,0.0001542,0.01
11736,17:45.1,190595991,-2.57,2.66,21.54,-12.05,22.5557315,88.3084268,1170,1568,1846,,10941515,-2.57,2.66,21.54,0.0001333,0.0001542,0.01
11770,17:45.2,190636802,-4.33,1.75,21.39,-12.05,22.5557315,88.3084268,1164,1570,1846,,10982326,-4.33,1.75,21.39,0.0001333,0.0001542,0.01
11811,17:45.2,190678915,-5.44,2.49,21.28,-12.05,22.5557315,88.3084268,1161,1568,1846,,11024439,-5.44,2.49,21.28,0.0001333,0.0001542,0.01
11847,17:45.3,190718021,-6.7,2.82,21.16,-11.92,22.5557398,88.3084326,1158,1567,1846,,11063545,-6.7,2.82,21.16,0.0001416,0.00016,0.14
11885,17:45.3,190757801,-7.54,1.61,21.1,-11.92,22.5557398,88.3084326,1155,1567,1846,,11103325,-7.54,1.61,21.1,0.0001416,0.00016,0.14
11921,17:45.3,190797054,-6.28,-0.05,20.41,-11.92,22.5557398,88.3084326,1151,1567,1846,,11142578,-6.28,-0.05,20.41,0.0001416,0.00016,0.14
11955,17:45.4,190836930,-4.12,0.87,18.75,-11.92,22.5557398,88.3084326,1133,1565,1846,,11182454,-4.12,0.87,18.75,0.0001416,0.00016,0.14
11996,17:45.4,190878750,-2.75,2.74,17.56,-11.89,22.5557481,88.3084384,1130,1564,1846,,11224274,-2.75,2.74,17.56,0.0001499,0.0001658,0.17
12031,17:45.5,190917385,-4.4,1.96,17.2,-11.89,22.5557481,88.3084384,1129,1556,1846,,11262909,-4.4,1.96,17.2,0.0001499,0.0001658,0.17
12070,17:45.5,190957507,-5.78,2.26,16.95,-11.89,22.5557481,88.3084384,1126,1556,1846,,11303031,-5.78,2.26,16.95,0.0001499,0.0001658,0.17
12105,17:45.5,190996478,-6.86,2.61,16.59,-11.89,22.5557481,88.3084384,1124,1556,1846,,11342002,-6.86,2.61,16.59,0.0001499,0.0001658,0.17
12141,17:45.6,191036495,-7.85,1.46,16.38,-11.89,22.5557481,88.3084384,1110,1558,1846,,11382019,-7.85,1.46,16.38,0.0001499,0.0001658,0.17
12182,17:45.6,191078036,-6.98,-0.5,15.68,-11.89,22.5557481,88.3084384,1108,1561,1846,,11423560,-6.98,-0.5,15.68,0.0001499,0.0001658,0.17
12215,17:45.7,191117226,-4.98,-0.42,13.88,-12.14,22.5557564,88.3084432,1104,1564,1846,,11462750,-4.98,-0.42,13.88,0.0001582,0.0001706,-0.08
12254,17:45.7,191157610,-3.62,1.66,12.46,-12.14,22.5557564,88.3084432,1102,1565,1848,,11503134,-3.62,1.66,12.46,0.0001582,0.0001706,-0.08
12289,17:45.7,191196065,-5.2,1.2,11.98,-12.14,22.5557564,88.3084432,1101,1568,1848,,11541589,-5.2,1.2,11.98,0.0001582,0.0001706,-0.08
12323,17:45.8,191236698,-6.6,1.23,11.75,-12.14,22.5557564,88.3084432,1098,1568,1848,,11582222,-6.6,1.23,11.75,0.0001582,0.0001706,-0.08
12364,17:45.8,191278351,-7.57,1.83,11.31,-12.14,22.5557564,88.3084432,1098,1565,1848,,11623875,-7.57,1.83,11.31,0.0001582,0.0001706,-0.08
12398,17:45.9,191317803,-8.63,0.81,11.08,-12.49,22.5557653,88.3084481,1098,1565,1848,,11663327,-8.63,0.81,11.08,0.0001671,0.0001755,-0.43
12438,17:45.9,191357593,-8.07,-1.21,10.51,-12.49,22.5557653,88.3084481,1098,1565,1848,,11703117,-8.07,-1.21,10.51,0.0001671,0.0001755,-0.43
12473,17:45.9,191396827,-6.09,-1.69,8.8,-12.49,22.5557653,88.3084481,1098,1565,1848,,11742351,-6.09,-1.69,8.8,0.0001671,0.0001755,-0.43
12507,17:46.0,191436668,-4.8,0.49,7.28,-12.49,22.5557653,88.3084481,1098,1565,1848,,11782192,-4.8,0.49,7.28,0.0001671,0.0001755,-0.43
12547,17:46.0,191477784,-6.24,0.37,6.78,-11.63,22.5557741,88.3084524,1101,1564,1848,,11823308,-6.24,0.37,6.78,0.0001759,0.0001798,0.43
12581,17:46.1,191517524,-7.71,0.17,6.64,-11.63,22.5557741,88.3084524,1102,1562,1848,,11863048,-7.71,0.17,6.64,0.0001759,0.0001798,0.43
12623,17:46.1,191557775,-8.81,1,6.22,-11.63,22.5557741,88.3084524,1104,1560,1848,,11903299,-8.81,1,6.22,0.0001759,0.0001798,0.43
12658,17:46.1,191596444,-9.97,0.35,6.1,-11.63,22.5557741,88.3084524,1104,1558,1846,,11941968,-9.97,0.35,6.1,0.0001759,0.0001798,0.43
12691,17:46.2,191636561,-9.57,-1.48,5.7,-11.63,22.5557741,88.3084524,1104,1558,1846,,11982085,-9.57,-1.48,5.7,0.0001759,0.0001798,0.43
12732,17:46.2,191678820,-7.4,-2.39,4.23,-11.63,22.5557741,88.3084524,1104,1565,1846,,12024344,-7.4,-2.39,4.23,0.0001759,0.0001798,0.43
12766,17:46.3,191717756,-6.32,-0.13,2.54,-11.51,22.5557827,88.3084574,1101,1571,1846,,12063280,-6.32,-0.13,2.54,0.0001845,0.0001848,0.55
12805,17:46.3,191757878,-7.05,0.2,1.87,-11.51,22.5557827,88.3084574,1098,1574,1846,,12103402,-7.05,0.2,1.87,0.0001845,0.0001848,0.55
12841,17:46.3,191796816,-8.69,-0.06,1.69,-11.51,22.5557827,88.3084574,1098,1574,1846,,12142340,-8.69,-0.06,1.69,0.0001845,0.0001848,0.55
12874,17:46.4,191837039,-9.99,0.99,1.21,-11.51,22.5557827,88.3084574,1101,1573,1846,,12182563,-9.99,0.99,1.21,0.0001845,0.0001848,0.55
12915,17:46.4,191878931,-11.3,0.8,0.99,-11.7,22.5557919,88.3084608,1101,1571,1846,,12224455,-11.3,0.8,0.99,0.0001937,0.0001882,0.36
12949,17:46.5,191917076,-11.11,-0.76,0.59,-11.7,22.5557919,88.3084608,1102,1570,1846,,12262600,-11.11,-0.76,0.59,0.0001937,0.0001882,0.36
12990,17:46.5,191957620,-8.93,-1.87,359.23,-11.7,22.5557919,88.3084608,1104,1570,1846,,12303144,-8.93,-1.87,359.23,0.0001937,0.0001882,0.36
13025,17:46.5,191996664,-7.57,0.28,357.35,-11.7,22.5557919,88.3084608,1104,1570,1846,,12342188,-7.57,0.28,357.35,0.0001937,0.0001882,0.36
13058,17:46.6,192036710,-7.94,1.13,356.39,-11.7,22.5557919,88.3084608,1104,1570,1846,,12382234,-7.94,1.13,356.39,0.0001937,0.0001882,0.36
13101,17:46.6,192077969,-9.66,0.67,356.16,-11.72,22.5558003,88.308465,1107,1567,1846,,12423493,-9.66,0.67,356.16,0.0002021,0.0001924,0.34
13135,17:46.7,192116937,-10.93,1.71,355.65,-11.72,22.5558003,88.308465,1107,1565,1846,,12462461,-10.93,1.71,355.65,0.0002021,0.0001924,0.34
13174,17:46.7,192157029,-12.15,1.77,355.32,-11.72,22.5558003,88.308465,1108,1564,1846,,12502553,-12.15,1.77,355.32,0.0002021,0.0001924,0.34
13209,17:46.7,192196427,-12.36,0.31,355,-11.72,22.5558003,88.308465,1110,1564,1846,,12541951,-12.36,0.31,355,0.0002021,0.0001924,0.34
13242,17:46.8,192236562,-10.52,-1.11,353.89,-11.72,22.5558003,88.308465,1108,1565,1846,,12582086,-10.52,-1.11,353.89,0.0002021,0.0001924,0.34
13283,17:46.8,192278269,-8.4,0.74,351.77,-11.72,22.5558003,88.308465,1107,1565,1846,,12623793,-8.4,0.74,351.77,0.0002021,0.0001924,0.34
13318,17:46.9,192317897,-8.48,1.86,350.55,-11.89,22.5558091,88.3084682,1108,1565,1846,,12663421,-8.48,1.86,350.55,0.0002109,0.0001956,0.17
13358,17:46.9,192357776,-10.14,1.29,350.22,-11.89,22.5558091,88.3084682,1110,1571,1845,,12703300,-10.14,1.29,350.22,0.0002109,0.0001956,0.17
13393,17:46.9,192396232,-11.4,2.28,349.65,-11.89,22.5558091,88.3084682,1110,1571,1842,,12741756,-11.4,2.28,349.65,0.0002109,0.0001956,0.17
13426,17:47.0,192436675,-12.76,2.56,349.16,-11.89,22.5558091,88.3084682,1110,1570,1836,,12782199,-12.76,2.56,349.16,0.0002109,0.0001956,0.17
13467,17:47.0,192478528,-13.48,1.34,348.81,-11.89,22.5558091,88.3084682,1111,1570,1836,,12824052,-13.48,1.34,348.81,0.0002109,0.0001956,0.17
13501,17:47.1,192517264,-11.84,-0.19,347.76,-11.37,22.5558192,88.3084678,1116,1571,1836,,12862788,-11.84,-0.19,347.76,0.000221,0.0001952,0.69
13541,17:47.1,192557703,-10.05,1.22,345.66,-11.37,22.5558192,88.3084678,1139,1570,1835,,12903227,-10.05,1.22,345.66,0.000221,0.0001952,0.69
13578,17:47.1,192596694,-9.14,2.79,344.1,-11.37,22.5558192,88.3084678,1152,1564,1833,,12942218,-9.14,2.79,344.1,0.000221,0.0001952,0.69
13611,17:47.2,192636647,-10.73,2.26,343.68,-11.37,22.5558192,88.3084678,1151,1561,1833,,12982171,-10.73,2.26,343.68,0.000221,0.0001952,0.69
13652,17:47.2,192677995,-12.07,3.04,343.19,-11.37,22.5558192,88.3084678,1146,1561,1833,,13023519,-12.07,3.04,343.19,0.000221,0.0001952,0.69
13686,17:47.3,192718451,-13.44,3.54,342.73,-11.28,22.5558292,88.3084675,1144,1560,1832,,13063975,-13.44,3.54,342.73,0.000231,0.0001949,0.78
13725,17:47.3,192757414,-14.6,2.4,342.56,-11.28,22.5558292,88.3084675,1142,1560,1833,,13102938,-14.6,2.4,342.56,0.000231,0.0001949,0.78
13760,17:47.3,192796991,-13.46,0.6,341.87,-11.28,22.5558292,88.3084675,1142,1561,1833,,13142515,-13.46,0.6,341.87,0.000231,0.0001949,0.78
13794,17:47.4,192836925,-11.17,1.22,339.74,-11.28,22.5558292,88.3084675,1139,1561,1833,,13182449,-11.17,1.22,339.74,0.000231,0.0001949,0.78
13835,17:47.4,192878405,-9.07,3.09,337.97,-11.28,22.5558292,88.3084675,1136,1562,1833,,13223929,-9.07,3.09,337.97,0.000231,0.0001949,0.78
13869,17:47.5,192917742,-10.24,2.5,337.34,-10.57,22.5558396,88.3084662,1132,1570,1835,,13263266,-10.24,2.5,337.34,0.0002414,0.0001936,1.49
13910,17:47.5,192957783,-11.64,2.93,336.68,-10.57,22.5558396,88.3084662,1132,1570,1835,,13303307,-11.64,2.93,336.68,0.0002414,0.0001936,1.49
13945,17:47.5,192996443,-13.1,3.56,335.86,-10.57,22.5558396,88.3084662,1132,1570,1835,,13341967,-13.1,3.56,335.86,0.0002414,0.0001936,1.49
13978,17:47.6,193036683,-14.5,2.58,335.42,-10.57,22.5558396,88.3084662,1133,1570,1835,,13382207,-14.5,2.58,335.42,0.0002414,0.0001936,1.49
14019,17:47.6,193078203,-13.86,0.78,334.6,-10.57,22.5558396,88.3084662,1132,1570,1835,,13423727,-13.86,0.78,334.6,0.0002414,0.0001936,1.49
14055,17:47.7,193117519,-11.68,0.71,332.34,-9.78,22.5558503,88.3084653,1132,1570,1835,,13463043,-11.68,0.71,332.34,0.0002521,0.0001927,2.28
14094,17:47.7,193157610,-9.35,2.81,330.23,-9.78,22.5558503,88.3084653,1132,1570,1835,,13503134,-9.35,2.81,330.23,0.0002521,0.0001927,2.28
14129,17:47.7,193196735,-10.03,2.46,329.31,-9.78,22.5558503,88.3084653,1132,1571,1835,,13542259,-10.03,2.46,329.31,0.0002521,0.0001927,2.28
14162,17:47.8,193236611,-11.3,2.49,328.57,-9.78,22.5558503,88.3084653,1132,1573,1835,,13582135,-11.3,2.49,328.57,0.0002521,0.0001927,2.28
14203,17:47.8,193277794,-12.65,3.21,327.53,-9.78,22.5558503,88.3084653,1130,1574,1833,,13623318,-12.65,3.21,327.53,0.0002521,0.0001927,2.28
14237,17:47.9,193318012,-14.13,2.42,326.95,-9.49,22.5558611,88.3084635,1126,1574,1835,,13663536,-14.13,2.42,326.95,0.0002629,0.0001909,2.57
14277,17:47.9,193357054,-13.98,0.58,326.16,-9.49,22.5558611,88.3084635,1113,1574,1835,,13702578,-13.98,0.58,326.16,0.0002629,0.0001909,2.57
14313,17:47.9,193396673,-11.78,-0.22,324.07,-9.49,22.5558611,88.3084635,1117,1582,1835,,13742197,-11.78,-0.22,324.07,0.0002629,0.0001909,2.57
14346,17:48.0,193436500,-9.71,1.94,321.69,-9.49,22.5558611,88.3084635,1126,1582,1832,,13782024,-9.71,1.94,321.69,0.0002629,0.0001909,2.57
14387,17:48.0,193477640,-10.12,1.98,320.59,-9.49,22.5558611,88.3084635,1113,1578,1830,,13823164,-10.12,1.98,320.59,0.0002629,0.0001909,2.57
14421,17:48.1,193517710,-11.3,1.84,319.89,-9.599999,22.5558693,88.3084602,1107,1577,1829,,13863234,-11.3,1.84,319.89,0.0002711,0.0001876,2.460001
14460,17:48.1,193557869,-12.83,2.78,318.86,-9.599999,22.5558693,88.3084602,1107,1577,1829,,13903393,-12.83,2.78,318.86,0.0002711,0.0001876,2.460001
14496,17:48.1,193596574,-14.32,2.28,318.28,-9.599999,22.5558693,88.3084602,1110,1574,1826,,13942098,-14.32,2.28,318.28,0.0002711,0.0001876,2.460001
14531,17:48.2,193636715,-14.31,0.6,317.54,-9.599999,22.5558693,88.3084602,1113,1574,1826,,13982239,-14.31,0.6,317.54,0.0002711,0.0001876,2.460001
14572,17:48.2,193678937,-12.13,-0.5,315.65,-9.599999,22.5558693,88.3084602,1124,1576,1826,,14024461,-12.13,-0.5,315.65,0.0002711,0.0001876,2.460001
14606,17:48.3,193717998,-10.32,1.5,313.23,-9.8,22.5558769,88.3084561,1120,1578,1826,,14063522,-10.32,1.5,313.23,0.0002787,0.0001835,2.26
14644,17:48.3,193757799,-10.04,1.92,311.94,-9.8,22.5558769,88.3084561,1114,1582,1826,,14103323,-10.04,1.92,311.94,0.0002787,0.0001835,2.26
14680,17:48.3,193797014,-11.37,1.49,311.29,-9.8,22.5558769,88.3084561,1114,1582,1826,,14142538,-11.37,1.49,311.29,0.0002787,0.0001835,2.26
14714,17:48.4,193836968,-12.82,2.52,310.31,-9.8,22.5558769,88.3084561,1120,1582,1826,,14182492,-12.82,2.52,310.31,0.0002787,0.0001835,2.26
14755,17:48.4,193877906,-14.21,2.28,309.64,-9.8,22.5558769,88.3084561,1124,1582,1826,,14223430,-14.21,2.28,309.64,0.0002787,0.0001835,2.26
14789,17:48.5,193917761,-14.37,0.72,308.94,-9.849999,22.5558848,88.3084505,1129,1589,1826,,14263285,-14.37,0.72,308.94,0.0002866,0.0001779,2.210001
14827,17:48.5,193957071,-12.32,-0.71,307.36,-9.849999,22.5558848,88.3084505,1142,1590,1826,,14302595,-12.32,-0.71,307.36,0.0002866,0.0001779,2.210001
14864,17:48.5,193996535,-10.21,1.09,304.81,-9.849999,22.5558848,88.3084505,1144,1592,1826,,14342059,-10.21,1.09,304.81,0.0002866,0.0001779,2.210001
14898,17:48.6,194036650,-9.96,1.92,303.32,-9.849999,22.5558848,88.3084505,1198,1600,1828,,14382174,-9.96,1.92,303.32,0.0002866,0.0001779,2.210001
14939,17:48.6,194077979,-11.43,1.36,302.65,-9.849999,22.5558848,88.3084505,1202,1600,1828,,14423503,-11.43,1.36,302.65,0.0002866,0.0001779,2.210001
14973,17:48.7,194117534,-12.71,2.61,301.75,-10.13,22.555892,88.3084451,1208,1602,1828,,14463058,-12.71,2.61,301.75,0.0002938,0.0001725,1.93
15013,17:48.7,194157823,-14.08,2.77,301.12,-10.13,22.555892,88.3084451,1206,1609,1829,,14503347,-14.08,2.77,301.12,0.0002938,0.0001725,1.93
15050,17:48.7,194196519,-14.62,1.43,300.67,-10.13,22.555892,88.3084451,1206,1608,1829,,14542043,-14.62,1.43,300.67,0.0002938,0.0001725,1.93
15084,17:48.8,194236643,-12.79,-0.03,299.44,-10.13,22.555892,88.3084451,1208,1600,1829,,14582167,-12.79,-0.03,299.44,0.0002938,0.0001725,1.93
15125,17:48.8,194277803,-10.54,1.55,297.15,-10.13,22.555892,88.3084451,1208,1599,1829,,14623327,-10.54,1.55,297.15,0.0002938,0.0001725,1.93
15159,17:48.9,194317678,-9.52,2.75,295.4,-10.69,22.5558978,88.3084392,1209,1590,1829,,14663202,-9.52,2.75,295.4,0.0002996,0.0001666,1.37
15198,17:48.9,194357514,-10.75,1.87,294.68,-10.69,22.5558978,88.3084392,1209,1587,1829,,14703038,-10.75,1.87,294.68,0.0002996,0.0001666,1.37
15234,17:48.9,194396276,-11.91,2.73,293.85,-10.69,22.5558978,88.3084392,1208,1582,1829,,14741800,-11.91,2.73,293.85,0.0002996,0.0001666,1.37
15268,17:49.0,194436678,-13.47,3.09,293.14,-10.69,22.5558978,88.3084392,1209,1578,1829,,14782202,-13.47,3.09,293.14,0.0002996,0.0001666,1.37
15309,17:49.0,194477254,-14.51,1.81,292.78,-10.69,22.5558978,88.3084392,1211,1576,1829,,14822778,-14.51,1.81,292.78,0.0002996,0.0001666,1.37
15343,17:49.1,194517914,-13.43,0,291.87,-10.81,22.5559032,88.3084312,1211,1570,1828,,14863438,-13.43,0,291.87,0.000305,0.0001586,1.25
15382,17:49.1,194557392,-11.11,0.72,289.62,-10.81,22.5559032,88.3084312,1211,1567,1826,,14902916,-11.11,0.72,289.62,0.000305,0.0001586,1.25
15417,17:49.1,194596660,-9.13,2.3,287.75,-10.81,22.5559032,88.3084312,1214,1565,1826,,14942184,-9.13,2.3,287.75,0.000305,0.0001586,1.25
15451,17:49.2,194636648,-10.09,1.37,287,-10.81,22.5559032,88.3084312,1218,1560,1824,,14982172,-10.09,1.37,287,0.000305,0.0001586,1.25
15494,17:49.2,194678929,-11.38,1.72,286.28,-10.77,22.555908,88.3084224,1218,1558,1823,,15024453,-11.38,1.72,286.28,0.0003098,0.0001498,1.29
15528,17:49.3,194717842,-12.98,2.04,285.53,-10.77,22.555908,88.3084224,1218,1556,1823,,15063366,-12.98,2.04,285.53,0.0003098,0.0001498,1.29
15566,17:49.3,194757892,-14.27,0.69,285.22,-10.77,22.555908,88.3084224,1217,1556,1823,,15103416,-14.27,0.69,285.22,0.0003098,0.0001498,1.29
15601,17:49.3,194796980,-13.62,-1.37,284.49,-10.77,22.555908,88.3084224,1214,1556,1823,,15142504,-13.62,-1.37,284.49,0.0003098,0.0001498,1.29
15635,17:49.4,194837006,-11.45,-1.44,282.47,-10.77,22.555908,88.3084224,1211,1554,1822,,15182530,-11.45,-1.44,282.47,0.0003098,0.0001498,1.29
15677,17:49.4,194878584,-9,0.69,280.42,-10.77,22.555908,88.3084224,1196,1554,1822,,15224108,-9,0.69,280.42,0.0003098,0.0001498,1.29
15711,17:49.5,194917420,-9.49,0.37,279.42,-11,22.555912,88.3084139,1170,1561,1822,,15262944,-9.49,0.37,279.42,0.0003138,0.0001413,1.06
15749,17:49.5,194957475,-10.96,0.54,278.64,-11,22.555912,88.3084139,1155,1564,1822,,15302999,-10.96,0.54,278.64,0.0003138,0.0001413,1.06
15786,17:49.5,194996393,-12.51,1.33,277.65,-11,22.555912,88.3084139,1139,1570,1822,,15341917,-12.51,1.33,277.65,0.0003138,0.0001413,1.06
15820,17:49.6,195036747,-13.94,0.44,277.14,-11,22.555912,88.3084139,1138,1570,1820,,15382271,-13.94,0.44,277.14,0.0003138,0.0001413,1.06
15861,17:49.6,195077515,-13.84,-1.38,276.35,-11,22.555912,88.3084139,1133,1571,1819,,15423039,-13.84,-1.38,276.35,0.0003138,0.0001413,1.06
15895,17:49.7,195117699,-11.64,-1.93,274.19,-10.63,22.5559145,88.3084037,1132,1573,1819,,15463223,-11.64,-1.93,274.19,0.0003163,0.0001311,1.43
15933,17:49.7,195157074,-9.41,0.45,271.79,-10.63,22.5559145,88.3084037,1129,1574,1819,,15502598,-9.41,0.45,271.79,0.0003163,0.0001311,1.43
15970,17:49.7,195196516,-9.69,0.79,270.63,-10.63,22.5559145,88.3084037,1126,1574,1819,,15542040,-9.69,0.79,270.63,0.0003163,0.0001311,1.43
16004,17:49.8,195236452,-11.11,0.89,269.87,-10.63,22.5559145,88.3084037,1124,1574,1819,,15581976,-11.11,0.89,269.87,0.0003163,0.0001311,1.43
16045,17:49.8,195278245,-12.75,1.91,268.84,-10.63,22.5559145,88.3084037,1124,1574,1819,,15623769,-12.75,1.91,268.84,0.0003163,0.0001311,1.43
16079,17:49.9,195317918,-14.23,1.43,268.26,-10.73,22.5559167,88.3083931,1126,1576,1819,,15663442,-14.23,1.43,268.26,0.0003185,0.0001205,1.33
16117,17:49.9,195357780,-14.24,-0.36,267.57,-10.73,22.5559167,88.3083931,1126,1576,1819,,15703304,-14.24,-0.36,267.57,0.0003185,0.0001205,1.33
16154,17:49.9,195396579,-12.14,-1.36,265.75,-10.73,22.5559167,88.3083931,1129,1574,1819,,15742103,-12.14,-1.36,265.75,0.0003185,0.0001205,1.33
16188,17:50.0,195436720,-10.23,0.85,263.31,-10.73,22.5559167,88.3083931,1132,1574,1819,,15782244,-10.23,0.85,263.31,0.0003185,0.0001205,1.33
16229,17:50.0,195478291,-9.73,1.63,262.03,-10.73,22.5559167,88.3083931,1146,1571,1819,,15823815,-9.73,1.63,262.03,0.0003185,0.0001205,1.33
16263,17:50.1,195517066,-11.1,1.47,261.4,-11.18,22.555918,88.308382,1152,1565,1819,,15862590,-11.1,1.47,261.4,0.0003198,0.0001094,0.88
16303,17:50.1,195557795,-12.84,2.42,260.52,-11.18,22.555918,88.308382,1155,1565,1819,,15903319,-12.84,2.42,260.52,0.0003198,0.0001094,0.88
16338,17:50.1,195596302,-14.22,2.09,260.01,-11.18,22.555918,88.308382,1157,1565,1819,,15941826,-14.22,2.09,260.01,0.0003198,0.0001094,0.88
16372,17:50.2,195636685,-14.36,0.13,259.58,-11.18,22.555918,88.308382,1155,1568,1819,,15982209,-14.36,0.13,259.58,0.0003198,0.0001094,0.88
16413,17:50.2,195678707,-12.26,-1.45,258.21,-11.18,22.555918,88.308382,1155,1570,1819,,16024231,-12.26,-1.45,258.21,0.0003198,0.0001094,0.88
16449,17:50.3,195718433,-10.23,0.41,255.86,-11.34,22.5559173,88.3083704,1152,1578,1819,,16063957,-10.23,0.41,255.86,0.0003191,9.78E-05,0.72
16489,17:50.3,195757408,-9.68,1.63,254.32,-11.34,22.5559173,88.3083704,1152,1592,1819,,16102932,-9.68,1.63,254.32,0.0003191,9.78E-05,0.72
16524,17:50.3,195797062,-11.04,1.52,253.58,-11.34,22.5559173,88.3083704,1152,1593,1819,,16142586,-11.04,1.52,253.58,0.0003191,9.78E-05,0.72
16558,17:50.4,195836721,-12.57,2.78,252.59,-11.34,22.5559173,88.3083704,1152,1595,1819,,16182245,-12.57,2.78,252.59,0.0003191,9.78E-05,0.72
16599,17:50.4,195878620,-14.11,3.01,251.86,-11.34,22.5559173,88.3083704,1152,1593,1819,,16224144,-14.11,3.01,251.86,0.0003191,9.78E-05,0.72
16634,17:50.5,195917685,-14.63,1.71,251.28,-11.13,22.5559152,88.3083588,1155,1593,1819,,16263209,-14.63,1.71,251.28,0.000317,8.62E-05,0.93
16672,17:50.5,195957620,-13.07,0.28,250.02,-11.13,22.5559152,88.3083588,1158,1592,1819,,16303144,-13.07,0.28,250.02,0.000317,8.62E-05,0.93
16707,17:50.5,195996535,-10.87,2.06,247.61,-11.13,22.5559152,88.3083588,1174,1592,1819,,16342059,-10.87,2.06,247.61,0.000317,8.62E-05,0.93
16743,17:50.6,196036762,-10.1,3.48,245.96,-11.13,22.5559152,88.3083588,1176,1590,1819,,16382286,-10.1,3.48,245.96,0.000317,8.62E-05,0.93
16783,17:50.6,196078283,-11.38,3.08,245.28,-11.13,22.5559152,88.3083588,1177,1590,1819,,16423807,-11.38,3.08,245.28,0.000317,8.62E-05,0.93
16817,17:50.7,196117225,-12.9,3.91,244.5,-11.36,22.5559135,88.3083474,1192,1589,1819,,16462749,-12.9,3.91,244.5,0.0003153,7.48E-05,0.7
16856,17:50.7,196157570,-14.46,4.27,243.85,-11.36,22.5559135,88.3083474,1221,1580,1819,,16503094,-14.46,4.27,243.85,0.0003153,7.48E-05,0.7
16891,17:50.7,196196396,-15.54,2.89,243.57,-11.36,22.5559135,88.3083474,1258,1571,1819,,16541920,-15.54,2.89,243.57,0.0003153,7.48E-05,0.7
16927,17:50.8,196236791,-14.41,0.97,242.79,-11.36,22.5559135,88.3083474,1271,1570,1819,,16582315,-14.41,0.97,242.79,0.0003153,7.48E-05,0.7
16967,17:50.8,196277498,-12.26,1.83,240.69,-11.36,22.5559135,88.3083474,1287,1570,1819,,16623022,-12.26,1.83,240.69,0.0003153,7.48E-05,0.7
17001,17:50.9,196317945,-10.37,3.6,238.78,-11.07,22.5559111,88.3083351,1312,1567,1817,,16663469,-10.37,3.6,238.78,0.0003129,6.25E-05,0.99
17040,17:50.9,196357690,-11.11,3.1,237.88,-11.07,22.5559111,88.3083351,1324,1562,1817,,16703214,-11.11,3.1,237.88,0.0003129,6.25E-05,0.99
17076,17:50.9,196396626,-12.78,3.35,237.15,-11.07,22.5559111,88.3083351,1337,1562,1817,,16742150,-12.78,3.35,237.15,0.0003129,6.25E-05,0.99
17111,17:51.0,196436848,-14.5,3.46,236.67,-11.07,22.5559111,88.3083351,1348,1562,1817,,16782372,-14.5,3.46,236.67,0.0003129,6.25E-05,0.99
17151,17:51.0,196478005,-15.68,1.6,236.69,-11.07,22.5559111,88.3083351,1337,1562,1817,,16823529,-15.68,1.6,236.69,0.0003129,6.25E-05,0.99
17185,17:51.1,196517516,-14.87,-0.94,236.44,-11.11,22.5559061,88.3083243,1312,1574,1817,,16863040,-14.87,-0.94,236.44,0.0003079,5.17E-05,0.95
17225,17:51.1,196557891,-12.78,-1.3,234.85,-11.11,22.5559061,88.3083243,1268,1587,1817,,16903415,-12.78,-1.3,234.85,0.0003079,5.17E-05,0.95
17260,17:51.1,196596464,-10.04,0.95,232.91,-11.11,22.5559061,88.3083243,1242,1596,1817,,16941988,-10.04,0.95,232.91,0.0003079,5.17E-05,0.95
17294,17:51.2,196636664,-9.9,1.52,231.67,-11.11,22.5559061,88.3083243,1240,1598,1817,,16982188,-9.9,1.52,231.67,0.0003079,5.17E-05,0.95
17334,17:51.2,196678483,-11.58,2.21,230.63,-11.11,22.5559061,88.3083243,1234,1599,1817,,17024007,-11.58,2.21,230.63,0.0003079,5.17E-05,0.95
17368,17:51.3,196717929,-13.28,3.21,229.57,-11.17,22.5559018,88.3083142,1231,1600,1817,,17063453,-13.28,3.21,229.57,0.0003036,4.16E-05,0.89
17409,17:51.3,196758955,-14.58,2.38,229.02,-11.17,22.5559018,88.3083142,1227,1602,1817,,17104479,-14.58,2.38,229.02,0.0003036,4.16E-05,0.89
17444,17:51.3,196796867,-14.3,0.51,228.36,-11.17,22.5559018,88.3083142,1224,1604,1817,,17142391,-14.3,0.51,228.36,0.0003036,4.16E-05,0.89
17478,17:51.4,196836948,-12.19,0.23,226.33,-11.17,22.5559018,88.3083142,1224,1606,1817,,17182472,-12.19,0.23,226.33,0.0003036,4.16E-05,0.89
17519,17:51.4,196877446,-9.73,2.83,224.06,-11.17,22.5559018,88.3083142,1218,1609,1817,,17222970,-9.73,2.83,224.06,0.0003036,4.16E-05,0.89
17553,17:51.5,196917951,-9.73,3.33,222.86,-11.22,22.5558972,88.3083039,1218,1616,1817,,17263475,-9.73,3.33,222.86,0.000299,3.13E-05,0.84
17592,17:51.5,196958827,-11.32,3.55,222.05,-11.22,22.5558972,88.3083039,1217,1618,1817,,17304351,-11.32,3.55,222.05,0.000299,3.13E-05,0.84
17627,17:51.5,196996590,-13.16,4.75,221.06,-11.22,22.5558972,88.3083039,1217,1621,1816,,17342114,-13.16,4.75,221.06,0.000299,3.13E-05,0.84
17663,17:51.6,197036640,-14.61,4.18,220.62,-11.22,22.5558972,88.3083039,1217,1622,1816,,17382164,-14.61,4.18,220.62,0.000299,3.13E-05,0.84
17703,17:51.6,197077964,-14.74,2.39,220.15,-11.22,22.5558972,88.3083039,1217,1624,1816,,17423488,-14.74,2.39,220.15,0.000299,3.13E-05,0.84
17737,17:51.7,197117791,-12.9,1.62,218.59,-11.49,22.5558899,88.3082963,1218,1625,1816,,17463315,-12.9,1.62,218.59,0.0002917,2.37E-05,0.57
17776,17:51.7,197158815,-11.18,4.17,216.3,-11.49,22.5558899,88.3082963,1231,1625,1816,,17504339,-11.18,4.17,216.3,0.0002917,2.37E-05,0.57
17811,17:51.7,197196493,-11.17,5.21,214.91,-11.49,22.5558899,88.3082963,1258,1625,1816,,17542017,-11.17,5.21,214.91,0.0002917,2.37E-05,0.57
17845,17:51.8,197236866,-12.88,5.33,214.2,-11.49,22.5558899,88.3082963,1271,1625,1816,,17582390,-12.88,5.33,214.2,0.0002917,2.37E-05,0.57
17887,17:51.8,197278263,-14.95,6.65,213.39,-11.48,22.5558818,88.3082908,1337,1596,1816,,17623787,-14.95,6.65,213.39,0.0002836,1.82E-05,0.58
17921,17:51.9,197317643,-16.62,6.47,213.12,-11.48,22.5558818,88.3082908,1363,1587,1816,,17663167,-16.62,6.47,213.12,0.0002836,1.82E-05,0.58
17960,17:51.9,197359006,-16.82,4.31,213.2,-11.48,22.5558818,88.3082908,1385,1574,1814,,17704530,-16.82,4.31,213.2,0.0002836,1.82E-05,0.58
17994,17:51.9,197396008,-15.03,2.65,212.44,-11.48,22.5558818,88.3082908,1406,1573,1814,,17741532,-15.03,2.65,212.44,0.0002836,1.82E-05,0.58
